name,state,street,lon,lat,formatted,categories,min_fee
Ramses Hilton,Cairo,Al Ghelal Street,31.231920049780665,30.0505894,"Ramses Hilton, 1115 Al Ghelal Street, Boulak, Cairo, 12344, Egypt","['accommodation', 'accommodation.hotel', 'building', 'building.accommodation', 'internet_access', 'wheelchair', 'wheelchair.yes']",98.0
Conrad Cairo,Cairo,Al Matbaah Al Amireh Street,31.228192046347168,30.0654238,"Conrad Cairo, 1191 Al Matbaah Al Amireh Street, Al-Sabtiyya, Cairo, 11221, Egypt","['accommodation', 'accommodation.hotel', 'building', 'building.accommodation', 'internet_access', 'internet_access.free', 'wheelchair', 'wheelchair.yes']",50.0
Hilton Pyramids Golf,Giza,Al Wahat Road,31.04439972284689,29.96299995,"Hilton Pyramids Golf, Al Wahat Road, Gardina Park valley, 6th of October, 12585, Egypt","['accommodation', 'accommodation.hotel', 'internet_access', 'wheelchair', 'wheelchair.yes']",0.0
Cairo Pyramids Hotel,Giza,"Cairo, Alexandria Desert Road",31.126265002453746,29.9929105,"Cairo Pyramids Hotel, Cairo, Alexandria Desert Road, Remaya Square, 12572, Egypt","['accommodation', 'accommodation.hotel']",0.0
Sofitel,Cairo,Montazah Al Gezira Street,31.224616965446906,30.038717400000003,"Sofitel Al-Gezirah Cairo, 3 Montazah Al Gezira Street, Bab al Luq, 11568, Egypt","['accommodation', 'accommodation.hotel', 'building', 'building.accommodation', 'internet_access', 'wheelchair', 'wheelchair.yes']",0.0
Hilton Cairo Zamalek Residences,Cairo,Mohamed Mazhar Street,31.222706271668887,30.06799785,"Hilton Cairo Zamalek Residences, 21 Mohamed Mazhar Street, Al-Sabtiyya, 11211, Egypt","['accommodation', 'accommodation.hotel', 'building', 'building.accommodation', 'internet_access', 'internet_access.free', 'wheelchair', 'wheelchair.yes']",0.0
"Fairmont Nile City Hotel, Cairo",Cairo,Kornish Al Nil Street,31.22787668555071,30.0719545,"Fairmont Nile City Hotel, Cairo, Kornish Al Nil Street, Al-Sabtiyya, Cairo, 11624, Egypt","['accommodation', 'accommodation.hotel', 'building', 'building.accommodation', 'internet_access', 'internet_access.free', 'wheelchair', 'wheelchair.yes']",0.0
Maadi Hotel,Cairo,Masr Helwan Agricultural Road,31.251331666029024,29.95927375,"Maadi Hotel, 19 Masr Helwan Agricultural Road, Ma‘di Al Khahiri, Cairo, 11728, Egypt","['accommodation', 'accommodation.hotel', 'internet_access']",0.0
فندق بيوم ليكسايد,Faiyum,Qaroun Lake Road,30.461126082476248,29.41949025,"فندق بيوم ليكسايد, Qaroun Lake Road, Youssef Al Sediq City, Egypt","['accommodation', 'accommodation.hotel']",0.0
البيت,Cairo,Street 23,31.26889895,29.96506025,"home, 4 Street 23, Ma‘di, Cairo, 11728, Egypt","['accommodation', 'accommodation.apartment', 'accommodation.hotel', 'building', 'building.accommodation']",0.0
فندق لو مريديان الأهرام,Giza,Hadaek Al Ahram 3 Street,31.1299254,29.9893841,"Le Méridien Pyramids Hotel & Spa, Hadaek Al Ahram 3 Street, Remaya Square, 12561, Egypt","['accommodation', 'accommodation.hotel']",0.0
Hyatt Regency Cairo West,Giza,"Cairo, Alexandria Desert Road",31.07305122094545,30.01831275,"Hyatt Regency Cairo West, km 22 Cairo, Alexandria Desert Road, Ash Sheikh Zayed, 12677, Egypt","['accommodation', 'accommodation.hotel', 'internet_access', 'internet_access.free']",0.0
Steigenberger Pyramids Cairo,Giza,"Cairo, Alexandria Desert Road",31.125261135653066,29.9938693,"Steigenberger Pyramids Cairo, Cairo, Alexandria Desert Road, Remaya Square, 12572, Egypt","['accommodation', 'accommodation.hotel']",0.0
Horus House Hotel,Cairo,Ismail Mohamed Street,31.2192726,30.0637719,"Horus House Hotel, 21 Ismail Mohamed Street, Al-Sabtiyya, 11568, Egypt","['accommodation', 'accommodation.hotel']",0.0
Arabian Nights,Cairo,Al Aded Street,31.2672675,30.0486398,"Arabian Nights, 10 Al Aded Street, Islamic Cairo, Cairo, 11633, Egypt","['accommodation', 'accommodation.hotel']",0.0
Golden Tulip Hotel October,Giza,Side Zewil Street,31.0530119,29.9481384,"Golden Tulip Hotel October, Side Zewil Street, Al Fardous City, 6th of October, 12578, Egypt","['accommodation', 'accommodation.hotel', 'internet_access', 'internet_access.free']",0.0
Best View Pyramids Hotel,Giza,Abou Saraya Street,31.1420605,29.9734817,"Best View Pyramids Hotel, 13 Abou Saraya Street, Nazlet al Batran, Giza, 12125, Egypt","['accommodation', 'accommodation.hotel', 'internet_access']",0.0
Cairo World Trade Center Hotel & Residences,Cairo,Al Matbaah Al Amireh Street,31.2281499,30.0643123,"Cairo World Trade Center Hotel & Residences, 1191 Al Matbaah Al Amireh Street, Al-Sabtiyya, Cairo, 11221, Egypt","['accommodation', 'accommodation.hotel', 'internet_access', 'internet_access.free']",0.0
براسبيل,Cairo,Talaat Harb Street,31.241795,30.0517845,"Brassbell, Talaat Harb Street, Bab al Luq, Cairo, 11956, Egypt","['accommodation', 'accommodation.hotel']",0.0
Crown Hotel,Cairo,Gawad Hosny Street,31.2432594,30.0485916,"Crown Hotel, 16 Gawad Hosny Street, Bab al Luq, Cairo, 42801, Egypt","['accommodation', 'accommodation.hotel', 'internet_access']",0.0
فندق كمبنسكي النيل القاهرة,Cairo,Ahmed Ragheb Street,31.230850144384405,30.0387215,"Kempinski Nile Hotel Garden City Cairo, 12 Ahmed Ragheb Street, Bab al Luq, Cairo, 11241, Egypt","['accommodation', 'accommodation.hotel', 'building', 'building.accommodation']",0.0
فيكتوريا,Cairo,Al Gemhoureya Street,31.24592849832533,30.0566901,"Victoria, 66 Al Gemhoureya Street, Al-Azbakeya, Cairo, 11523, Egypt","['accommodation', 'accommodation.hotel', 'building', 'building.accommodation']",0.0
النيل,Cairo,Wasem Hassn Street,31.2323670764158,30.04588595,"The Nile Ritz-Carlton, Cairo, Wasem Hassn Street, Bab al Luq, Cairo, 11556, Egypt","['accommodation', 'accommodation.hotel', 'building', 'building.accommodation']",0.0
فور سيزونز,Giza,Al Raed Rawaia Ateya Street,31.217259705487574,30.02412435,"Four Seasons Hotel Cairo at The First Residence, Al Raed Rawaia Ateya Street, Giza, 11555, Egypt","['accommodation', 'accommodation.hotel', 'building', 'building.accommodation']",0.0
كتراكت بيراميدز ريزورت,Giza,Saqara Al Syahi Road,31.1791949431326,29.9647703,"Cataract Pyramids Resort, Saqara Al Syahi Road, Shabramant, 12841, Egypt","['accommodation', 'accommodation.hotel', 'sport']",0.0
ماريوت القاهرة,Cairo,Al Gezira Street,31.22448236672649,30.0568203,"Cairo Marriott Hotel & Omar Khayyam Casino, 16 Al Gezira Street, Boulak, 11211, Egypt","['accommodation', 'accommodation.hotel']",0.0
Holiday Inn Maadi Cairo,Cairo,Hussain Ahmed Othman Street,31.24822461387093,29.96100025,"Holiday Inn Maadi Cairo, 29A Hussain Ahmed Othman Street, Ma‘di Al Khahiri, Cairo, 11431, Egypt","['accommodation', 'accommodation.hotel', 'building', 'building.accommodation', 'internet_access', 'internet_access.free']",0.0
فندق لونشان,Cairo,Ismail Mohamed Street,31.2191142,30.0638579,"Hotel Longchamps, Ismail Mohamed Street, Al-Sabtiyya, 11568, Egypt","['accommodation', 'accommodation.hotel']",0.0
أواسيس هوتيل,Giza,"Cairo, Alexandria Desert Road",31.10356757465733,30.01409375,"The Oasis Hotel, Cairo, Alexandria Desert Road, Remaya Square, 12556, Egypt","['accommodation', 'accommodation.hotel']",0.0
"InterContinental Cairo Semiramis, an IHG Hotel",Cairo,Kamal Al Din Hussain Street,31.23226068207317,30.0428649,"InterContinental Cairo Semiramis, an IHG Hotel, Kamal Al Din Hussain Street, Bab al Luq, Cairo, 11519, Egypt","['accommodation', 'accommodation.hotel', 'building', 'building.accommodation', 'internet_access', 'internet_access.free', 'wheelchair', 'wheelchair.yes']",0.0
hotel Velvet 1915,Cairo,Maarouf Street,31.23907421608358,30.04926655,"hotel Velvet 1915, 2 Maarouf Street, Bab al Luq, Cairo, 11519, Egypt","['accommodation', 'accommodation.hotel', 'building', 'building.accommodation']",0.0
فندق أوزيريس,Cairo,Mohamed Mahmoud Street,31.24155396475909,30.0425956,"Hotel Osiris, Mohamed Mahmoud Street, Bab al Luq, Cairo, 11513, Egypt","['accommodation', 'accommodation.hotel', 'building', 'building.accommodation']",0.0
Windsor,Cairo,Mohamed Bek Al Alfy Street,31.24574314557654,30.05343105,"Windsor, 19 Mohamed Bek Al Alfy Street, Al-Azbakeya, Cairo, 11574, Egypt","['accommodation', 'accommodation.hotel', 'building', 'building.accommodation']",0.0
Pyramids View Inn,Giza,Abou Al Houl Al Syahi Western Street,31.14114227405858,29.9748143,"Pyramids View Inn, Abou Al Houl Al Syahi Western Street, Kom al Akhdar, Giza, 12125, Egypt","['accommodation', 'accommodation.hotel', 'building', 'building.accommodation']",0.0
Pearl Hotel,Cairo,Street 82,31.259555794627687,29.9565521,"Pearl Hotel, Street 82, Ma‘di Al Khahiri, Cairo, 11728, Egypt","['accommodation', 'accommodation.hotel', 'building', 'building.accommodation', 'internet_access']",0.0
Regent House Hotel,Cairo,Al Shai Al Hendy Passage,31.2396366,30.048999,"Regent House Hotel, 2 Al Shai Al Hendy Passage, Bab al Luq, Cairo, 42801, Egypt","['accommodation', 'accommodation.hotel', 'internet_access']",0.0
جمعية فنادق الشباب المصري,Cairo,Abd Al Aziz Al Seoud Street,31.2243921,30.0275393,"Youth Hotel, Abd Al Aziz Al Seoud Street, Al Manyal, Cairo, 11555, Egypt","['accommodation', 'accommodation.hotel']",0.0
Villa Belle Epoque,Cairo,Street 13,31.2631143,29.9595817,"Villa Belle Epoque, 63 Street 13, Ma‘di Al Khahiri, Cairo, 11728, Egypt","['accommodation', 'accommodation.hotel']",0.0
اسماعيل ابو السعود,Giza,Waslet Dahshur Road,30.9687471,30.017301,"ismail abu alsoud, 95 Waslet Dahshur Road, October Hills, 12588, Egypt","['accommodation', 'accommodation.hotel', 'internet_access']",0.0
8ش ابرهيم خطاب،كفر نصار،الجيزة،محافظة الجيزة 3515051,Giza,Bashir Khatab Street,31.1197104,29.9987147,"8ش ابرهيم خطاب،كفر نصار،الجيزة،محافظة الجيزة 3515051, 8 Bashir Khatab Street, Giza, 12559, Egypt","['accommodation', 'accommodation.hotel', 'internet_access', 'internet_access.free']",0.0
Suisse Hotel,Cairo,Mohamed Basyouni Street,31.2373404,30.0482677,"Suisse Hotel, 26 Mohamed Basyouni Street, Bab al Luq, Cairo, 11556, Egypt","['accommodation', 'accommodation.hotel']",0.0
فندق فور سيزون نايل بلازا القاهره,Cairo,Kornish Al Nil Street,31.2293727,30.0362273,"Four Seasons Hotel Cairo at Nile Plaza, 1089 Kornish Al Nil Street, Al Manyal, Cairo, 11519, Egypt","['accommodation', 'accommodation.hotel']",0.0
Almadiafa - المضيفه,Cairo,Champollion Street,31.2353043,30.0472654,"Almadiafa, 4 Champollion Street, Al-Azbakeya, Cairo, 11556, Egypt","['accommodation', 'accommodation.hotel']",0.0
Seven Eleven Heru Pyramids View Hotel,Giza,Sameh Abdel Hakam Street,31.1439583,29.9540856,"Seven Eleven Heru Pyramids View Hotel, 7 Sameh Abdel Hakam Street, Cairo, 12557, Egypt","['accommodation', 'accommodation.hotel', 'internet_access']",0.0
Pyramids Park Resort Cairo,Giza,"Cairo, Alexandria Desert Road",31.1160362,30.0006064,"Pyramids Park Resort Cairo, Cairo, Alexandria Desert Road, Remaya Square, 12556, Egypt","['accommodation', 'accommodation.hotel']",0.0
فندق الزمالك لضباط القوات المسلحة,Cairo,15th May Bridge,31.219313381673302,30.0615215,"Zamalek Hotel For Armed Forces Officers, 15th May Bridge, Al-Sabtiyya, 11211, Egypt","['accommodation', 'accommodation.hotel', 'building', 'building.accommodation']",0.0
فندق العربي,Cairo,Abd Al Aziz Al Seoud Street,31.222991619976938,30.01084455,"Al-Arabi, Abd Al Aziz Al Seoud Street, Masr Al-Qadima, Cairo, 11451, Egypt","['accommodation', 'accommodation.hotel', 'building', 'building.accommodation']",0.0
فندق شيراتون القاهرة,Giza,Al Nil Street,31.21994709908429,30.0390204,"Sheraton Cairo Hotel & Casino, Al Nil Street, Dokki, Cairo, 12612, Egypt","['accommodation', 'accommodation.hotel', 'building', 'building.accommodation', 'wheelchair', 'wheelchair.yes']",0.0
نوفوتيل,Cairo,Al Gezira Street,31.22661150021261,30.04454415,"Novotel Hotel Cairo El Borg, Al Gezira Street, Boulak, 11111, Egypt","['accommodation', 'accommodation.hotel', 'building', 'building.accommodation']",0.0
فندق أوروبا,Cairo,Yaser Rezq Axis,31.27472578466356,30.0211476,"Europe Hotel, Yaser Rezq Axis, Mokattam, Cairo, 11699, Egypt","['accommodation', 'accommodation.hotel']",0.0
Royal Residence Hotel Suites & Apartments,Cairo,Street 18,31.26929595,29.9584158,"Royal Residence Hotel Suites & Apartments, 11 Street 18, Cairo, 11728, Egypt","['accommodation', 'accommodation.hotel', 'building', 'building.accommodation']",0.0
سوبك,Faiyum,Evelyn Street,30.495923689577936,29.396191700000003,"Sobek Lodge, Evelyn Street, Youssef Al Sediq City, Egypt","['accommodation', 'accommodation.hotel']",0.0
فندق أوبرج الفيوم,Faiyum,Qaroun Lake Road,30.77030503052559,29.468862450000003,"Helnan Auberge El Fayoum Hotel, Qaroun Lake Road, Minshat Sinurus, Al-Wayet Shakshuk, Egypt","['accommodation', 'accommodation.hotel']",0.0
فندق أم كلثوم,Cairo,Ibn Al Nabeyh Street,31.2159286,30.0645602,"Om Kalthoom Hotel, Ibn Al Nabeyh Street, Al-Sabtiyya, 11568, Egypt","['accommodation', 'accommodation.hotel', 'wheelchair', 'wheelchair.limited']",0.0
فندق إيزيس,Cairo,Gamal Selim Street,31.329618741657697,30.03951955,"Isis Hotel, Gamal Selim Street, Nasr City, Cairo, 11717, Egypt","['accommodation', 'accommodation.hotel', 'building', 'building.accommodation', 'building.commercial']",0.0
بنسيون روما,Cairo,Mohamed Farid Street,31.244547,30.0515136,"Pension Roma, Mohamed Farid Street, Al-Azbakeya, Cairo, 42801, Egypt","['accommodation', 'accommodation.hotel']",0.0
النبيلة,Giza,Al Falouga Street,31.207761148308137,30.05909705,"النبيلة, Al Falouga Street, El Agouza, Giza, 12654, Egypt","['accommodation', 'accommodation.hotel', 'building', 'building.accommodation']",0.0
جراند حيات,Cairo,Abd Al Aziz Al Seoud Bridge,31.2276294,30.0348063,"Grand Hyatt, Abd Al Aziz Al Seoud Bridge, Al Manyal, Cairo, 11111, Egypt","['accommodation', 'accommodation.hotel']",0.0
أوديون,Cairo,Passage Abd Al Hamid Said,31.23863299332007,30.05055255,"Odeon, Passage Abd Al Hamid Said, Bab al Luq, Cairo, 11956, Egypt","['accommodation', 'accommodation.hotel', 'building', 'building.accommodation', 'building.residential', 'wheelchair', 'wheelchair.yes']",0.0
فندق مايفير,Cairo,Al Aziz Othman Street,31.22100505,30.059424,"Mayfair Hotel, 9 Al Aziz Othman Street, Al-Sabtiyya, 11568, Egypt","['accommodation', 'accommodation.hotel', 'building', 'building.accommodation']",0.0
Continental Hotel (OLD),Cairo,Continental Passage,31.246333711117344,30.05180315,"Continental Hotel (OLD), Continental Passage, Al-Azbakeya, Cairo, 11574, Egypt","['accommodation', 'accommodation.hotel']",0.0
غولدن توليب فلامينكو,Cairo,Abou Al feda Street,31.215990432475472,30.0658824,"Golden Tulip Flamenco Hotel, 11 Abou Al feda Street, Al-Sabtiyya, 11568, Egypt","['accommodation', 'accommodation.hotel', 'building', 'building.accommodation']",0.0
شهرزاد,Giza,Kornish Al Nil Street,31.2154322,30.056728,"Shehrazad, Kornish Al Nil Street, El Agouza, Giza, 12654, Egypt","['accommodation', 'accommodation.hotel']",0.0
The Shepherd Hotel,Cairo,Abd Al Qader Hamza Street,31.23173468147065,30.04214105,"The Shepherd Hotel, Abd Al Qader Hamza Street, Bab al Luq, Cairo, 11519, Egypt","['accommodation', 'accommodation.hotel', 'building', 'building.accommodation']",0.0
هوتيل بالاس,Faiyum,Al Horeya Street,30.8437023,29.3081066,"Palace Hotel, Al Horeya Street, Forth District, 63519, Egypt","['accommodation', 'accommodation.hotel']",0.0
دلتا الأهرام,Giza,Al Horeya Alley,31.1370932,29.9913026,"Delta Pyramids, Al Horeya Alley, Kom al Akhdar, Remaya Square, 12512, Egypt","['accommodation', 'accommodation.hotel']",0.0
كرلتون,Cairo,Al Borsa Street,31.24113004720932,30.0531726,"Roof Carlton, Al Borsa Street, Al-Azbakeya, Cairo, 11574, Egypt","['accommodation', 'accommodation.hotel', 'catering', 'catering.bar']",0.0
indiana Hôtel,Giza,Adel Hussein Rostom Street,31.217195548916894,30.0435449,"indiana Hôtel, 18 Adel Hussein Rostom Street, Dokki, Giza, 12611, Egypt","['accommodation', 'accommodation.hotel', 'building', 'building.accommodation']",0.0
Sara Inn,Cairo,Al Bostan Al Saedi Street,31.2390760904848,30.04661835,"Sara Inn, 1 Al Bostan Al Saedi Street, Abdin, Cairo, 11513, Egypt","['accommodation', 'accommodation.hotel']",0.0
Amin Hotel,Cairo,Al Falaky Street,31.23967576355176,30.04534915,"Amin Hotel, 34 Al Falaky Street, Abdin, Cairo, 11513, Egypt","['accommodation', 'accommodation.hotel', 'building', 'building.accommodation']",0.0
Capital Hotel,Cairo,Bhler Passage,31.23976825,30.04824275,"Capital Hotel, 1 Bhler Passage, Abdin, Cairo, 11513, Egypt","['accommodation', 'accommodation.hotel', 'building', 'building.accommodation']",0.0
Gresham,Cairo,Maarouf Street,31.239277278795484,30.049118,"Gresham, Maarouf Street, Bab al Luq, Cairo, 11956, Egypt","['accommodation', 'accommodation.hotel', 'building', 'building.accommodation']",0.0
Tonsy Hotel,Giza,Al Tahrir Street,31.218019114495377,30.0394806,"Tonsy Hotel, 147 Al Tahrir Street, Dokki, Giza, 12612, Egypt","['accommodation', 'accommodation.hotel', 'building', 'building.accommodation', 'building.office']",0.0
فندق الأهرامات الثلاثة,Giza,Mohamed Salem Street,31.1763862,29.999636,"Barcelo Cairo Pyramides, Mohamed Salem Street, Giza, 12111, Egypt","['accommodation', 'accommodation.hotel']",0.0
Gawharet Al Ahram Hotel,Giza,Om Al Abtaal Square,31.15443360628238,29.9912609,"Gawharet Al Ahram Hotel, Om Al Abtaal Square, Kom al Akhdar, Giza, 12574, Egypt","['accommodation', 'accommodation.hotel', 'building', 'building.accommodation']",0.0
موفنبيك القاهرة - مدينة الانتاج الاعلامي,Giza,Al Wahat Road,31.0207595,29.9632295,"Movenpick Hotel - Media Production City, Al Wahat Road, Gardina Park valley, 6th of October, 12585, Egypt","['accommodation', 'accommodation.hotel']",0.0
مركور كايرو لو سفينكس,Giza,"Cairo, Alexandria Desert Road",31.1281259,29.9904964,"Mercure Cairo Le Sphinx, Cairo, Alexandria Desert Road, Remaya Square, 12559, Egypt","['accommodation', 'accommodation.hotel']",0.0
Pharaohs,Giza,Lotfi Hasouna Street,31.2185122,30.0422436,"Pharaohs, Lotfi Hasouna Street, Dokki, Giza, 12611, Egypt","['accommodation', 'accommodation.hotel']",0.0
Pharoah Egypt Hotel,Giza,Omar Tousoun Street,31.207506791799005,30.06264385,"Pharoah Egypt Hotel, Omar Tousoun Street, Meet Okba, Giza, 12658, Egypt","['accommodation', 'accommodation.hotel', 'building', 'building.accommodation']",0.0
Safir Hotel,Giza,Refaah Street,31.213403,30.0351353,"Safir Hotel, Refaah Street, Dokki, Giza, 12612, Egypt","['accommodation', 'accommodation.hotel']",0.0
Sakkara Country Club,Giza,"Zaweya Abou Moslem, Saqara Road",31.185601,29.9140543,"Sakkara Country Club, Zaweya Abou Moslem, Saqara Road, Abu Sir, 12947, Egypt","['accommodation', 'accommodation.hotel']",0.0
King Hotel,Giza,Abd Al Rahim Sabry Street,31.214383,30.0409859,"King Hotel, Abd Al Rahim Sabry Street, Dokki, Giza, 12611, Egypt","['accommodation', 'accommodation.hotel']",0.0
شيراتون دريم لاند,Giza,Al Wahat Road,31.0212474,29.9651096,"Sheraton Dreamland Hotel & Conference Center, Al Wahat Road, Gardina Park valley, 6th of October, 12585, Egypt","['accommodation', 'accommodation.hotel']",0.0
Tiap Hous,Giza,Mohamed Khalaf Street,31.2140328,30.0416081,"Tiap Hous, Mohamed Khalaf Street, Dokki, Giza, 12611, Egypt","['accommodation', 'accommodation.hotel']",0.0
Nouran,Giza,Mohamed Khalaf Street,31.2141061,30.0400118,"Nouran, Mohamed Khalaf Street, Dokki, Giza, 12611, Egypt","['accommodation', 'accommodation.hotel']",0.0
star plaza guest house,Giza,Doctor Michael Bakhum Street,31.2055397,30.0391947,"star plaza guest house, Doctor Michael Bakhum Street, Dokki, Giza, 12311, Egypt","['accommodation', 'accommodation.hotel']",0.0
My home,Giza,Ammar Ibn Yaser Street,31.1797531,30.0930635,"My home, Ammar Ibn Yaser Street, Bashteel Al-Balad, 12976, Egypt","['accommodation', 'accommodation.hotel']",0.0
سماح,Faiyum,Qaroun Street,30.8422466,29.3138776,"Grace, Qaroun Street, Second Darb Al Tabakhin, 63514, Egypt","['accommodation', 'accommodation.hotel']",0.0
قاعة المؤتمرات,Bani Sweif,Ring Road,31.1148876,29.0734481,"Conference Hall, Ring Road, Al Gezira Bahary, 62515, Egypt","['accommodation', 'accommodation.hotel']",0.0
HolydIes,Giza,Side Gamaa Al Doul Al Arabiya Street,31.2074897,30.059221,"HolydIes, Side Gamaa Al Doul Al Arabiya Street, El Agouza, Giza, 12654, Egypt","['accommodation', 'accommodation.hotel']",0.0
دار المركبات,Cairo,Al Seka Al Baida' Street,31.2878045,30.0648749,"دار المركبات, Al Seka Al Baida' Street, Cairo, 11535, Egypt","['accommodation', 'accommodation.hotel']",0.0
فندق لاڤي,Cairo,Talaat Harb Street,31.2418231,30.0525959,"Lavie Hotel, Talaat Harb Street, Bab al Luq, Cairo, 11956, Egypt","['accommodation', 'accommodation.hotel']",0.0
Lavie Hotel,Cairo,26th July Street,31.241769,30.0526148,"Lavie Hotel, 26th July Street, Al-Azbakeya, Cairo, 11574, Egypt","['accommodation', 'accommodation.hotel']",0.0
لي لي,Cairo,Sherif Pasha Street,31.2424756,30.0525168,"Ly ly, Sherif Pasha Street, Al-Azbakeya, Cairo, 11956, Egypt","['accommodation', 'accommodation.hotel']",0.0
منزلي مصر,Giza,Gada Street,31.197698,30.0446059,"منزلي مصر, Gada Street, El Mohandesin, Giza, 12615, Egypt","['accommodation', 'accommodation.hotel']",0.0
منتجع الاسيوطي سبورت,Faiyum,"Cairo, Asyout Western Desert Road",31.1139152,29.4017341,"منتجع الاسيوطي سبورت, Cairo, Asyout Western Desert Road, Egypt","['accommodation', 'accommodation.hotel']",0.0
فندق ميركور,Giza,Al Haram Street,31.1337285,29.986834,"فندق ميركور, Al Haram Street, Kom al Akhdar, Remaya Square, 12512, Egypt","['accommodation', 'accommodation.hotel']",0.0
pyramids family inn,Giza,Al Salam Street,31.1437447,29.9775111,"pyramids family inn, 2 Al Salam Street, Kom al Akhdar, Giza, 12125, Egypt","['accommodation', 'accommodation.hotel']",0.0
هوليداي ان,Cairo,Kornish Al Nil Street,31.2478985,29.9606675,"Holiday Inn, Kornish Al Nil Street, Al-Maasara, Cairo, 11917, Egypt","['accommodation', 'accommodation.hotel', 'internet_access']",0.0
Atlantis Pyramids Inn,Giza,Bni Sofyan Street,31.1401736,29.9759431,"Atlantis Pyramids Inn, 4 Bni Sofyan Street, Kom al Akhdar, Giza, 12557, Egypt","['accommodation', 'accommodation.hotel', 'internet_access']",0.0
Pyramids plateau inn,Giza,Abou Al Houl Al Syahi Western Street,31.141815,29.9760233,"Pyramids plateau inn, 2 Abou Al Houl Al Syahi Western Street, Kom al Akhdar, Giza, 12557, Egypt","['accommodation', 'accommodation.hotel', 'internet_access']",0.0
The Shepherd Hotel,Cairo,Abd Al Qader Hamza Street,31.231877,30.0420866,"The Shepherd Hotel, Abd Al Qader Hamza Street, Bab al Luq, Cairo, 11519, Egypt","['accommodation', 'accommodation.hotel', 'tourism', 'tourism.sights']",0.0
Le Riad Hotel de Charme,Cairo,Atafet Borgwan,31.2617601,30.0521855,"Le Riad Hotel de Charme, Atafet Borgwan, El-Gamaliyya, Cairo, 11681, Egypt","['accommodation', 'accommodation.hotel']",0.0
شهاب,Cairo,Al Moshir Ahmed Ismail Street,31.3753113,29.8382924,"Home, Al Moshir Ahmed Ismail Street, Cairo, 11798, Egypt","['accommodation', 'accommodation.hotel']",0.0
صبحي,Giza,Mahmoud Abd Al Rahman Street,31.1855018,30.0845709,"صبحي, Mahmoud Abd Al Rahman Street, Bashteel Al-Balad, 12976, Egypt","['accommodation', 'accommodation.hotel']",0.0
شهاب,Cairo,Al Moshir Ahmed Ismail Street,31.3752231,29.8383088,"Sheehab, Al Moshir Ahmed Ismail Street, Cairo, 11798, Egypt","['accommodation', 'accommodation.hotel']",0.0
نهر النيل,Cairo,Kornish Al Nil Street,31.2501664,29.9570684,"نهر النيل, Kornish Al Nil Street, Al-Maasara, Cairo, 11917, Egypt","['accommodation', 'accommodation.hotel', 'man_made', 'man_made.water_tower', 'tourism.sights']",0.0
الخولي,Cairo,Al Moshir Ahmed Ismail Street,31.3754239,29.8385368,"الخولي, Al Moshir Ahmed Ismail Street, Cairo, 11798, Egypt","['accommodation', 'accommodation.hotel']",0.0
"Marriott Mena House, Cairo",Giza,"Cairo, Alexandria Desert Road",31.1327491,29.9858579,"Marriott Mena House, Cairo, 6 Cairo, Alexandria Desert Road, Giza, 12556, Egypt","['accommodation', 'accommodation.hotel']",0.0
The St. Regis Cairo,Cairo,Kornish Al Nil Street,31.227601,30.0630181,"The St. Regis Cairo, 1189 Kornish Al Nil Street, Al-Sabtiyya, Cairo, 11624, Egypt","['accommodation', 'accommodation.hotel']",0.0
جوهرة الهرم,Giza,Al Haram Street,31.154173,29.9913412,"Gawharet Al Ahram, Al Haram Street, Kom al Akhdar, Giza, 12574, Egypt","['accommodation', 'accommodation.hotel']",0.0
Royal pyramids Inn,Giza,Al Al Farazdq Street,31.1414565,29.9740365,"Royal pyramids Inn, 5 Al Al Farazdq Street, Nazlet al Batran, Giza, 12557, Egypt","['accommodation', 'accommodation.hotel']",0.0
Pyramids View apartment,Giza,Yehya Abd Al Naby Street,31.1415906,29.9742409,"Pyramids View apartment, 6 Yehya Abd Al Naby Street, Nazlet al Batran, Giza, 12557, Egypt","['accommodation', 'accommodation.hotel']",0.0
Pyramids Inn,Giza,Ibn Touloun Street,31.1438038,29.9727205,"Pyramids Inn, 12 Ibn Touloun Street, Nazlet al Batran, Giza, 12557, Egypt","['accommodation', 'accommodation.hotel']",0.0
Le Riad Pyramids Hotel,Giza,Rowda Al Ahram Street,31.1308122,29.9906676,"Le Riad Pyramids Hotel, Rowda Al Ahram Street, Remaya Square, 12512, Egypt","['accommodation', 'accommodation.hotel']",0.0
مارفل ستون هوتل,Giza,Zuqaq Garir,31.1415167,29.9749036,"Marvel Stone Hotel, Zuqaq Garir, Nazlet al Batran, Giza, 12125, Egypt","['accommodation', 'accommodation.hotel']",0.0
Pyramids Loft Guesthouse,Giza,Al Salam Street,31.1435767,29.975948,"Pyramids Loft Guesthouse, Al Salam Street, Kom al Akhdar, Giza, 12125, Egypt","['accommodation', 'accommodation.hotel']",0.0
City Hostel,Cairo,Al Gnena Street,31.2481125,30.0537395,"City Hostel, Al Gnena Street, Al-Azbakeya, Cairo, 11668, Egypt","['accommodation', 'accommodation.hotel']",0.0
Freedom Hostel (Good address),Cairo,Bank Masr Street,31.2426495,30.0483467,"Freedom Hostel (Good address), Bank Masr Street, Bab al Luq, Cairo, 42801, Egypt","['accommodation', 'accommodation.hotel']",0.0
Gresham Hotel,Cairo,Talaat Harb Street,31.2387148,30.0485745,"Gresham Hotel, 22 Talaat Harb Street, Bab al Luq, Cairo, 11519, Egypt","['accommodation', 'accommodation.hotel', 'internet_access', 'internet_access.free']",0.0
Tahrir Plaza Suites Hotel,Cairo,Merit Pasha Street,31.2348627,30.0486474,"Tahrir Plaza Suites Hotel, 19 Merit Pasha Street, Bab al Luq, Cairo, 11519, Egypt","['accommodation', 'accommodation.hotel']",0.0
Cleopatra Hotel,Cairo,Abd Al Salam Aref Street,31.2353548,30.0462969,"Cleopatra Hotel, Abd Al Salam Aref Street, Bab al Luq, Cairo, 11513, Egypt","['accommodation', 'accommodation.hotel', 'internet_access', 'internet_access.for_customers', 'wheelchair', 'wheelchair.limited']",0.0
Safir Hotel,Giza,Refaah Street,31.2138502,30.0353398,"Safir Hotel, Refaah Street, Dokki, Giza, 12612, Egypt","['accommodation', 'accommodation.hotel']",0.0
فندق نور الصباح,Cairo,Khan Al Khalili Street,31.2621557,30.0474934,"Nour Elsabah, Khan Al Khalili Street, Islamic Cairo, Cairo, 11261, Egypt","['accommodation', 'accommodation.hotel']",0.0
Memar Almorshedy,Cairo,Al Abany Street,31.3212088,29.985867,"Memar Almorshedy, Al Abany Street, Cairo, 11571, Egypt","['accommodation', 'accommodation.hotel']",0.0
Panorama Pyramids Inn,Giza,Abou Al Houl Al Syahi Western Street,31.1411272,29.9744838,"Panorama Pyramids Inn, Abou Al Houl Al Syahi Western Street, Kom al Akhdar, Giza, 12125, Egypt","['accommodation', 'accommodation.hotel']",0.0
Valencia,Cairo,Talaat Harb Street,31.23960778632605,30.0488426,"Valencia, 21 Talaat Harb Street, Bab al Luq, Cairo, 11519, Egypt","['accommodation', 'accommodation.hotel', 'building', 'building.accommodation']",0.0
Swiss Inn Pyramids Golf Resort,Giza,Al Wahat Road,31.046963874611155,29.9630842,"Swiss Inn Pyramids Golf Resort, Al Wahat Road, Gardina Park valley, 6th of October, 12585, Egypt","['accommodation', 'accommodation.hotel']",0.0
family palace hotel,Cairo,B Tech Passage,31.244515532911212,30.052170500000003,"family palace hotel, B Tech Passage, Al-Azbakeya, Cairo, 11574, Egypt","['accommodation', 'accommodation.hotel', 'building', 'building.accommodation', 'building.residential']",0.0
Giza palace,Giza,Side 26th of July Axis,31.002796,30.0179382,"Giza palace, Side 26th of July Axis, El Nada Compound, 12573, Egypt","['accommodation', 'accommodation.hotel']",0.0
Tiba Pyramids Hotel,Giza,Abou Al Houl Al Syahi Street,31.1414737,29.9865912,"Tiba Pyramids Hotel, Abou Al Houl Al Syahi Street, Kom al Akhdar, Remaya Square, 12512, Egypt","['accommodation', 'accommodation.hotel']",0.0
Cheops Pyramid In,Giza,Naser Alley,31.141299,29.9758937,"Cheops Pyramid In, Naser Alley, Kom al Akhdar, Giza, 12125, Egypt","['accommodation', 'accommodation.hotel']",0.0
Lagoona,Giza,Abou Al Houl Al Syahi Street,31.1536378,29.9568667,"Lagoona, Abou Al Houl Al Syahi Street, Nazlet al Batran, Remaya Square, 12561, Egypt","['accommodation', 'accommodation.hotel']",0.0
Trio Hotel Caroline Crillon,Giza,Surya Street,31.1949468,30.0527729,"Trio Hotel Caroline Crillon, Surya Street, El Mohandesin, Cairo, 13211, Egypt","['accommodation', 'accommodation.hotel']",0.0
The Square Boutique Hotel,Cairo,Mohamed Sabry Abou Alam Street,31.238954,30.0472745,"The Square Boutique Hotel, Mohamed Sabry Abou Alam Street, Bab al Luq, Cairo, 11613, Egypt","['accommodation', 'accommodation.hotel']",0.0
Hayat,Giza,Al Afdal Street,31.1413339,29.9753361,"Hayat, Al Afdal Street, Nazlet al Batran, Giza, 12125, Egypt","['accommodation', 'accommodation.hotel']",0.0
Nema Inn pyramids,Giza,Al Akhtal Street,31.1416903,29.9757572,"Nema Inn pyramids, Al Akhtal Street, Nazlet al Batran, Giza, 12125, Egypt","['accommodation', 'accommodation.hotel']",0.0
Cosmopolitan Hotel,Cairo,Abou Bakr Khairat Street,31.2403433,30.047706,"Cosmopolitan Hotel, Abou Bakr Khairat Street, Bab al Luq, Cairo, 42801, Egypt","['accommodation', 'accommodation.hotel']",0.0
TuT pyramids view,Giza,Al Shaeir Street,31.1411976,29.9726784,"TuT pyramids view, Al Shaeir Street, Nazlet al Batran, Giza, 12125, Egypt","['accommodation', 'accommodation.hotel', 'internet_access']",0.0
Pyramids Planet Hotel,Giza,Street 9,31.1079449,29.9614768,"Pyramids Planet Hotel, Street 9, Giza, 12559, Egypt","['accommodation', 'accommodation.hotel']",0.0
Eileen Hotel Cairo,Cairo,Youssef Al Gendy Street,31.2394293,30.0459882,"Eileen Hotel Cairo, 21 Youssef Al Gendy Street, Abdin, Cairo, 11513, Egypt","['accommodation', 'accommodation.hotel']",0.0
Atlas international hotel,Cairo,El Fawala Street,31.2462697,30.0483875,"Atlas international hotel, El Fawala Street, Bab al Shariyah, Cairo, 11518, Egypt","['accommodation', 'accommodation.hotel']",0.0
Centro Cairo Hotel,Cairo,Sherif Pasha Street,31.2421843,30.0507737,"Centro Cairo Hotel, 32 Sherif Pasha Street, Abdin, Cairo, 11513, Egypt","['accommodation', 'accommodation.hotel']",0.0
Ramses Hilton,Cairo,Al Ghelal Street,31.231920049780665,30.0505894,"Ramses Hilton, 1115 Al Ghelal Street, Boulak, Cairo, 12344, Egypt","['accommodation', 'accommodation.hotel', 'building', 'building.accommodation', 'internet_access', 'wheelchair', 'wheelchair.yes']",98.0
Conrad Cairo,Cairo,Al Matbaah Al Amireh Street,31.228192046347168,30.0654238,"Conrad Cairo, 1191 Al Matbaah Al Amireh Street, Al-Sabtiyya, Cairo, 11221, Egypt","['accommodation', 'accommodation.hotel', 'building', 'building.accommodation', 'internet_access', 'internet_access.free', 'wheelchair', 'wheelchair.yes']",50.0
Hilton Pyramids Golf,Giza,Al Wahat Road,31.04439972284689,29.96299995,"Hilton Pyramids Golf, Al Wahat Road, Gardina Park valley, 6th of October, 12585, Egypt","['accommodation', 'accommodation.hotel', 'internet_access', 'wheelchair', 'wheelchair.yes']",0.0
Cairo Pyramids Hotel,Giza,"Cairo, Alexandria Desert Road",31.126265002453746,29.9929105,"Cairo Pyramids Hotel, Cairo, Alexandria Desert Road, Remaya Square, 12572, Egypt","['accommodation', 'accommodation.hotel']",0.0
Sofitel,Cairo,Montazah Al Gezira Street,31.224616965446906,30.038717400000003,"Sofitel Al-Gezirah Cairo, 3 Montazah Al Gezira Street, Bab al Luq, 11568, Egypt","['accommodation', 'accommodation.hotel', 'building', 'building.accommodation', 'internet_access', 'wheelchair', 'wheelchair.yes']",0.0
Hilton Cairo Zamalek Residences,Cairo,Mohamed Mazhar Street,31.222706271668887,30.06799785,"Hilton Cairo Zamalek Residences, 21 Mohamed Mazhar Street, Al-Sabtiyya, 11211, Egypt","['accommodation', 'accommodation.hotel', 'building', 'building.accommodation', 'internet_access', 'internet_access.free', 'wheelchair', 'wheelchair.yes']",0.0
"Fairmont Nile City Hotel, Cairo",Cairo,Kornish Al Nil Street,31.22787668555071,30.0719545,"Fairmont Nile City Hotel, Cairo, Kornish Al Nil Street, Al-Sabtiyya, Cairo, 11624, Egypt","['accommodation', 'accommodation.hotel', 'building', 'building.accommodation', 'internet_access', 'internet_access.free', 'wheelchair', 'wheelchair.yes']",0.0
Maadi Hotel,Cairo,Masr Helwan Agricultural Road,31.251331666029024,29.95927375,"Maadi Hotel, 19 Masr Helwan Agricultural Road, Ma‘di Al Khahiri, Cairo, 11728, Egypt","['accommodation', 'accommodation.hotel', 'internet_access']",0.0
فندق بيوم ليكسايد,Faiyum,Qaroun Lake Road,30.461126082476248,29.41949025,"فندق بيوم ليكسايد, Qaroun Lake Road, Youssef Al Sediq City, Egypt","['accommodation', 'accommodation.hotel']",0.0
البيت,Cairo,Street 23,31.26889895,29.96506025,"home, 4 Street 23, Ma‘di, Cairo, 11728, Egypt","['accommodation', 'accommodation.apartment', 'accommodation.hotel', 'building', 'building.accommodation']",0.0
فندق لو مريديان الأهرام,Giza,Hadaek Al Ahram 3 Street,31.1299254,29.9893841,"Le Méridien Pyramids Hotel & Spa, Hadaek Al Ahram 3 Street, Remaya Square, 12561, Egypt","['accommodation', 'accommodation.hotel']",0.0
Hyatt Regency Cairo West,Giza,"Cairo, Alexandria Desert Road",31.07305122094545,30.01831275,"Hyatt Regency Cairo West, km 22 Cairo, Alexandria Desert Road, Ash Sheikh Zayed, 12677, Egypt","['accommodation', 'accommodation.hotel', 'internet_access', 'internet_access.free']",0.0
Steigenberger Pyramids Cairo,Giza,"Cairo, Alexandria Desert Road",31.125261135653066,29.9938693,"Steigenberger Pyramids Cairo, Cairo, Alexandria Desert Road, Remaya Square, 12572, Egypt","['accommodation', 'accommodation.hotel']",0.0
Horus House Hotel,Cairo,Ismail Mohamed Street,31.2192726,30.0637719,"Horus House Hotel, 21 Ismail Mohamed Street, Al-Sabtiyya, 11568, Egypt","['accommodation', 'accommodation.hotel']",0.0
Arabian Nights,Cairo,Al Aded Street,31.2672675,30.0486398,"Arabian Nights, 10 Al Aded Street, Islamic Cairo, Cairo, 11633, Egypt","['accommodation', 'accommodation.hotel']",0.0
Golden Tulip Hotel October,Giza,Side Zewil Street,31.0530119,29.9481384,"Golden Tulip Hotel October, Side Zewil Street, Al Fardous City, 6th of October, 12578, Egypt","['accommodation', 'accommodation.hotel', 'internet_access', 'internet_access.free']",0.0
Best View Pyramids Hotel,Giza,Abou Saraya Street,31.1420605,29.9734817,"Best View Pyramids Hotel, 13 Abou Saraya Street, Nazlet al Batran, Giza, 12125, Egypt","['accommodation', 'accommodation.hotel', 'internet_access']",0.0
Cairo World Trade Center Hotel & Residences,Cairo,Al Matbaah Al Amireh Street,31.2281499,30.0643123,"Cairo World Trade Center Hotel & Residences, 1191 Al Matbaah Al Amireh Street, Al-Sabtiyya, Cairo, 11221, Egypt","['accommodation', 'accommodation.hotel', 'internet_access', 'internet_access.free']",0.0
براسبيل,Cairo,Talaat Harb Street,31.241795,30.0517845,"Brassbell, Talaat Harb Street, Bab al Luq, Cairo, 11956, Egypt","['accommodation', 'accommodation.hotel']",0.0
Crown Hotel,Cairo,Gawad Hosny Street,31.2432594,30.0485916,"Crown Hotel, 16 Gawad Hosny Street, Bab al Luq, Cairo, 42801, Egypt","['accommodation', 'accommodation.hotel', 'internet_access']",0.0
فندق كمبنسكي النيل القاهرة,Cairo,Ahmed Ragheb Street,31.230850144384405,30.0387215,"Kempinski Nile Hotel Garden City Cairo, 12 Ahmed Ragheb Street, Bab al Luq, Cairo, 11241, Egypt","['accommodation', 'accommodation.hotel', 'building', 'building.accommodation']",0.0
فيكتوريا,Cairo,Al Gemhoureya Street,31.24592849832533,30.0566901,"Victoria, 66 Al Gemhoureya Street, Al-Azbakeya, Cairo, 11523, Egypt","['accommodation', 'accommodation.hotel', 'building', 'building.accommodation']",0.0
النيل,Cairo,Wasem Hassn Street,31.2323670764158,30.04588595,"The Nile Ritz-Carlton, Cairo, Wasem Hassn Street, Bab al Luq, Cairo, 11556, Egypt","['accommodation', 'accommodation.hotel', 'building', 'building.accommodation']",0.0
فور سيزونز,Giza,Al Raed Rawaia Ateya Street,31.217259705487574,30.02412435,"Four Seasons Hotel Cairo at The First Residence, Al Raed Rawaia Ateya Street, Giza, 11555, Egypt","['accommodation', 'accommodation.hotel', 'building', 'building.accommodation']",0.0
كتراكت بيراميدز ريزورت,Giza,Saqara Al Syahi Road,31.1791949431326,29.9647703,"Cataract Pyramids Resort, Saqara Al Syahi Road, Shabramant, 12841, Egypt","['accommodation', 'accommodation.hotel', 'sport']",0.0
ماريوت القاهرة,Cairo,Al Gezira Street,31.22448236672649,30.0568203,"Cairo Marriott Hotel & Omar Khayyam Casino, 16 Al Gezira Street, Boulak, 11211, Egypt","['accommodation', 'accommodation.hotel']",0.0
Holiday Inn Maadi Cairo,Cairo,Hussain Ahmed Othman Street,31.24822461387093,29.96100025,"Holiday Inn Maadi Cairo, 29A Hussain Ahmed Othman Street, Ma‘di Al Khahiri, Cairo, 11431, Egypt","['accommodation', 'accommodation.hotel', 'building', 'building.accommodation', 'internet_access', 'internet_access.free']",0.0
فندق لونشان,Cairo,Ismail Mohamed Street,31.2191142,30.0638579,"Hotel Longchamps, Ismail Mohamed Street, Al-Sabtiyya, 11568, Egypt","['accommodation', 'accommodation.hotel']",0.0
أواسيس هوتيل,Giza,"Cairo, Alexandria Desert Road",31.10356757465733,30.01409375,"The Oasis Hotel, Cairo, Alexandria Desert Road, Remaya Square, 12556, Egypt","['accommodation', 'accommodation.hotel']",0.0
"InterContinental Cairo Semiramis, an IHG Hotel",Cairo,Kamal Al Din Hussain Street,31.23226068207317,30.0428649,"InterContinental Cairo Semiramis, an IHG Hotel, Kamal Al Din Hussain Street, Bab al Luq, Cairo, 11519, Egypt","['accommodation', 'accommodation.hotel', 'building', 'building.accommodation', 'internet_access', 'internet_access.free', 'wheelchair', 'wheelchair.yes']",0.0
hotel Velvet 1915,Cairo,Maarouf Street,31.23907421608358,30.04926655,"hotel Velvet 1915, 2 Maarouf Street, Bab al Luq, Cairo, 11519, Egypt","['accommodation', 'accommodation.hotel', 'building', 'building.accommodation']",0.0
فندق أوزيريس,Cairo,Mohamed Mahmoud Street,31.24155396475909,30.0425956,"Hotel Osiris, Mohamed Mahmoud Street, Bab al Luq, Cairo, 11513, Egypt","['accommodation', 'accommodation.hotel', 'building', 'building.accommodation']",0.0
Windsor,Cairo,Mohamed Bek Al Alfy Street,31.24574314557654,30.05343105,"Windsor, 19 Mohamed Bek Al Alfy Street, Al-Azbakeya, Cairo, 11574, Egypt","['accommodation', 'accommodation.hotel', 'building', 'building.accommodation']",0.0
Pyramids View Inn,Giza,Abou Al Houl Al Syahi Western Street,31.14114227405858,29.9748143,"Pyramids View Inn, Abou Al Houl Al Syahi Western Street, Kom al Akhdar, Giza, 12125, Egypt","['accommodation', 'accommodation.hotel', 'building', 'building.accommodation']",0.0
Pearl Hotel,Cairo,Street 82,31.259555794627687,29.9565521,"Pearl Hotel, Street 82, Ma‘di Al Khahiri, Cairo, 11728, Egypt","['accommodation', 'accommodation.hotel', 'building', 'building.accommodation', 'internet_access']",0.0
Regent House Hotel,Cairo,Al Shai Al Hendy Passage,31.2396366,30.048999,"Regent House Hotel, 2 Al Shai Al Hendy Passage, Bab al Luq, Cairo, 42801, Egypt","['accommodation', 'accommodation.hotel', 'internet_access']",0.0
جمعية فنادق الشباب المصري,Cairo,Abd Al Aziz Al Seoud Street,31.2243921,30.0275393,"Youth Hotel, Abd Al Aziz Al Seoud Street, Al Manyal, Cairo, 11555, Egypt","['accommodation', 'accommodation.hotel']",0.0
Villa Belle Epoque,Cairo,Street 13,31.2631143,29.9595817,"Villa Belle Epoque, 63 Street 13, Ma‘di Al Khahiri, Cairo, 11728, Egypt","['accommodation', 'accommodation.hotel']",0.0
اسماعيل ابو السعود,Giza,Waslet Dahshur Road,30.9687471,30.017301,"ismail abu alsoud, 95 Waslet Dahshur Road, October Hills, 12588, Egypt","['accommodation', 'accommodation.hotel', 'internet_access']",0.0
8ش ابرهيم خطاب،كفر نصار،الجيزة،محافظة الجيزة 3515051,Giza,Bashir Khatab Street,31.1197104,29.9987147,"8ش ابرهيم خطاب،كفر نصار،الجيزة،محافظة الجيزة 3515051, 8 Bashir Khatab Street, Giza, 12559, Egypt","['accommodation', 'accommodation.hotel', 'internet_access', 'internet_access.free']",0.0
Suisse Hotel,Cairo,Mohamed Basyouni Street,31.2373404,30.0482677,"Suisse Hotel, 26 Mohamed Basyouni Street, Bab al Luq, Cairo, 11556, Egypt","['accommodation', 'accommodation.hotel']",0.0
فندق فور سيزون نايل بلازا القاهره,Cairo,Kornish Al Nil Street,31.2293727,30.0362273,"Four Seasons Hotel Cairo at Nile Plaza, 1089 Kornish Al Nil Street, Al Manyal, Cairo, 11519, Egypt","['accommodation', 'accommodation.hotel']",0.0
Almadiafa - المضيفه,Cairo,Champollion Street,31.2353043,30.0472654,"Almadiafa, 4 Champollion Street, Al-Azbakeya, Cairo, 11556, Egypt","['accommodation', 'accommodation.hotel']",0.0
Seven Eleven Heru Pyramids View Hotel,Giza,Sameh Abdel Hakam Street,31.1439583,29.9540856,"Seven Eleven Heru Pyramids View Hotel, 7 Sameh Abdel Hakam Street, Cairo, 12557, Egypt","['accommodation', 'accommodation.hotel', 'internet_access']",0.0
Pyramids Park Resort Cairo,Giza,"Cairo, Alexandria Desert Road",31.1160362,30.0006064,"Pyramids Park Resort Cairo, Cairo, Alexandria Desert Road, Remaya Square, 12556, Egypt","['accommodation', 'accommodation.hotel']",0.0
فندق الزمالك لضباط القوات المسلحة,Cairo,15th May Bridge,31.219313381673302,30.0615215,"Zamalek Hotel For Armed Forces Officers, 15th May Bridge, Al-Sabtiyya, 11211, Egypt","['accommodation', 'accommodation.hotel', 'building', 'building.accommodation']",0.0
فندق العربي,Cairo,Abd Al Aziz Al Seoud Street,31.222991619976938,30.01084455,"Al-Arabi, Abd Al Aziz Al Seoud Street, Masr Al-Qadima, Cairo, 11451, Egypt","['accommodation', 'accommodation.hotel', 'building', 'building.accommodation']",0.0
فندق شيراتون القاهرة,Giza,Al Nil Street,31.21994709908429,30.0390204,"Sheraton Cairo Hotel & Casino, Al Nil Street, Dokki, Cairo, 12612, Egypt","['accommodation', 'accommodation.hotel', 'building', 'building.accommodation', 'wheelchair', 'wheelchair.yes']",0.0
نوفوتيل,Cairo,Al Gezira Street,31.22661150021261,30.04454415,"Novotel Hotel Cairo El Borg, Al Gezira Street, Boulak, 11111, Egypt","['accommodation', 'accommodation.hotel', 'building', 'building.accommodation']",0.0
فندق أوروبا,Cairo,Yaser Rezq Axis,31.27472578466356,30.0211476,"Europe Hotel, Yaser Rezq Axis, Mokattam, Cairo, 11699, Egypt","['accommodation', 'accommodation.hotel']",0.0
Royal Residence Hotel Suites & Apartments,Cairo,Street 18,31.26929595,29.9584158,"Royal Residence Hotel Suites & Apartments, 11 Street 18, Cairo, 11728, Egypt","['accommodation', 'accommodation.hotel', 'building', 'building.accommodation']",0.0
سوبك,Faiyum,Evelyn Street,30.495923689577936,29.396191700000003,"Sobek Lodge, Evelyn Street, Youssef Al Sediq City, Egypt","['accommodation', 'accommodation.hotel']",0.0
فندق أوبرج الفيوم,Faiyum,Qaroun Lake Road,30.77030503052559,29.468862450000003,"Helnan Auberge El Fayoum Hotel, Qaroun Lake Road, Minshat Sinurus, Al-Wayet Shakshuk, Egypt","['accommodation', 'accommodation.hotel']",0.0
فندق أم كلثوم,Cairo,Ibn Al Nabeyh Street,31.2159286,30.0645602,"Om Kalthoom Hotel, Ibn Al Nabeyh Street, Al-Sabtiyya, 11568, Egypt","['accommodation', 'accommodation.hotel', 'wheelchair', 'wheelchair.limited']",0.0
بنسيون روما,Cairo,Mohamed Farid Street,31.244547,30.0515136,"Pension Roma, Mohamed Farid Street, Al-Azbakeya, Cairo, 42801, Egypt","['accommodation', 'accommodation.hotel']",0.0
النبيلة,Giza,Al Falouga Street,31.207761148308137,30.05909705,"النبيلة, Al Falouga Street, El Agouza, Giza, 12654, Egypt","['accommodation', 'accommodation.hotel', 'building', 'building.accommodation']",0.0
جراند حيات,Cairo,Abd Al Aziz Al Seoud Bridge,31.2276294,30.0348063,"Grand Hyatt, Abd Al Aziz Al Seoud Bridge, Al Manyal, Cairo, 11111, Egypt","['accommodation', 'accommodation.hotel']",0.0
أوديون,Cairo,Passage Abd Al Hamid Said,31.23863299332007,30.05055255,"Odeon, Passage Abd Al Hamid Said, Bab al Luq, Cairo, 11956, Egypt","['accommodation', 'accommodation.hotel', 'building', 'building.accommodation', 'building.residential', 'wheelchair', 'wheelchair.yes']",0.0
فندق مايفير,Cairo,Al Aziz Othman Street,31.22100505,30.059424,"Mayfair Hotel, 9 Al Aziz Othman Street, Al-Sabtiyya, 11568, Egypt","['accommodation', 'accommodation.hotel', 'building', 'building.accommodation']",0.0
Continental Hotel (OLD),Cairo,Continental Passage,31.246333711117344,30.05180315,"Continental Hotel (OLD), Continental Passage, Al-Azbakeya, Cairo, 11574, Egypt","['accommodation', 'accommodation.hotel']",0.0
غولدن توليب فلامينكو,Cairo,Abou Al feda Street,31.215990432475472,30.0658824,"Golden Tulip Flamenco Hotel, 11 Abou Al feda Street, Al-Sabtiyya, 11568, Egypt","['accommodation', 'accommodation.hotel', 'building', 'building.accommodation']",0.0
شهرزاد,Giza,Kornish Al Nil Street,31.2154322,30.056728,"Shehrazad, Kornish Al Nil Street, El Agouza, Giza, 12654, Egypt","['accommodation', 'accommodation.hotel']",0.0
The Shepherd Hotel,Cairo,Abd Al Qader Hamza Street,31.23173468147065,30.04214105,"The Shepherd Hotel, Abd Al Qader Hamza Street, Bab al Luq, Cairo, 11519, Egypt","['accommodation', 'accommodation.hotel', 'building', 'building.accommodation']",0.0
هوتيل بالاس,Faiyum,Al Horeya Street,30.8437023,29.3081066,"Palace Hotel, Al Horeya Street, Forth District, 63519, Egypt","['accommodation', 'accommodation.hotel']",0.0
دلتا الأهرام,Giza,Al Horeya Alley,31.1370932,29.9913026,"Delta Pyramids, Al Horeya Alley, Kom al Akhdar, Remaya Square, 12512, Egypt","['accommodation', 'accommodation.hotel']",0.0
كرلتون,Cairo,Al Borsa Street,31.24113004720932,30.0531726,"Roof Carlton, Al Borsa Street, Al-Azbakeya, Cairo, 11574, Egypt","['accommodation', 'accommodation.hotel', 'catering', 'catering.bar']",0.0
indiana Hôtel,Giza,Adel Hussein Rostom Street,31.217195548916894,30.0435449,"indiana Hôtel, 18 Adel Hussein Rostom Street, Dokki, Giza, 12611, Egypt","['accommodation', 'accommodation.hotel', 'building', 'building.accommodation']",0.0
Sara Inn,Cairo,Al Bostan Al Saedi Street,31.2390760904848,30.04661835,"Sara Inn, 1 Al Bostan Al Saedi Street, Abdin, Cairo, 11513, Egypt","['accommodation', 'accommodation.hotel']",0.0
Amin Hotel,Cairo,Al Falaky Street,31.23967576355176,30.04534915,"Amin Hotel, 34 Al Falaky Street, Abdin, Cairo, 11513, Egypt","['accommodation', 'accommodation.hotel', 'building', 'building.accommodation']",0.0
Capital Hotel,Cairo,Bhler Passage,31.23976825,30.04824275,"Capital Hotel, 1 Bhler Passage, Abdin, Cairo, 11513, Egypt","['accommodation', 'accommodation.hotel', 'building', 'building.accommodation']",0.0
Gresham,Cairo,Maarouf Street,31.239277278795484,30.049118,"Gresham, Maarouf Street, Bab al Luq, Cairo, 11956, Egypt","['accommodation', 'accommodation.hotel', 'building', 'building.accommodation']",0.0
Tonsy Hotel,Giza,Al Tahrir Street,31.218019114495377,30.0394806,"Tonsy Hotel, 147 Al Tahrir Street, Dokki, Giza, 12612, Egypt","['accommodation', 'accommodation.hotel', 'building', 'building.accommodation', 'building.office']",0.0
فندق الأهرامات الثلاثة,Giza,Mohamed Salem Street,31.1763862,29.999636,"Barcelo Cairo Pyramides, Mohamed Salem Street, Giza, 12111, Egypt","['accommodation', 'accommodation.hotel']",0.0
Gawharet Al Ahram Hotel,Giza,Om Al Abtaal Square,31.15443360628238,29.9912609,"Gawharet Al Ahram Hotel, Om Al Abtaal Square, Kom al Akhdar, Giza, 12574, Egypt","['accommodation', 'accommodation.hotel', 'building', 'building.accommodation']",0.0
موفنبيك القاهرة - مدينة الانتاج الاعلامي,Giza,Al Wahat Road,31.0207595,29.9632295,"Movenpick Hotel - Media Production City, Al Wahat Road, Gardina Park valley, 6th of October, 12585, Egypt","['accommodation', 'accommodation.hotel']",0.0
مركور كايرو لو سفينكس,Giza,"Cairo, Alexandria Desert Road",31.1281259,29.9904964,"Mercure Cairo Le Sphinx, Cairo, Alexandria Desert Road, Remaya Square, 12559, Egypt","['accommodation', 'accommodation.hotel']",0.0
Pharaohs,Giza,Lotfi Hasouna Street,31.2185122,30.0422436,"Pharaohs, Lotfi Hasouna Street, Dokki, Giza, 12611, Egypt","['accommodation', 'accommodation.hotel']",0.0
Pharoah Egypt Hotel,Giza,Omar Tousoun Street,31.207506791799005,30.06264385,"Pharoah Egypt Hotel, Omar Tousoun Street, Meet Okba, Giza, 12658, Egypt","['accommodation', 'accommodation.hotel', 'building', 'building.accommodation']",0.0
Safir Hotel,Giza,Refaah Street,31.213403,30.0351353,"Safir Hotel, Refaah Street, Dokki, Giza, 12612, Egypt","['accommodation', 'accommodation.hotel']",0.0
Sakkara Country Club,Giza,"Zaweya Abou Moslem, Saqara Road",31.185601,29.9140543,"Sakkara Country Club, Zaweya Abou Moslem, Saqara Road, Abu Sir, 12947, Egypt","['accommodation', 'accommodation.hotel']",0.0
King Hotel,Giza,Abd Al Rahim Sabry Street,31.214383,30.0409859,"King Hotel, Abd Al Rahim Sabry Street, Dokki, Giza, 12611, Egypt","['accommodation', 'accommodation.hotel']",0.0
شيراتون دريم لاند,Giza,Al Wahat Road,31.0212474,29.9651096,"Sheraton Dreamland Hotel & Conference Center, Al Wahat Road, Gardina Park valley, 6th of October, 12585, Egypt","['accommodation', 'accommodation.hotel']",0.0
Tiap Hous,Giza,Mohamed Khalaf Street,31.2140328,30.0416081,"Tiap Hous, Mohamed Khalaf Street, Dokki, Giza, 12611, Egypt","['accommodation', 'accommodation.hotel']",0.0
Nouran,Giza,Mohamed Khalaf Street,31.2141061,30.0400118,"Nouran, Mohamed Khalaf Street, Dokki, Giza, 12611, Egypt","['accommodation', 'accommodation.hotel']",0.0
star plaza guest house,Giza,Doctor Michael Bakhum Street,31.2055397,30.0391947,"star plaza guest house, Doctor Michael Bakhum Street, Dokki, Giza, 12311, Egypt","['accommodation', 'accommodation.hotel']",0.0
My home,Giza,Ammar Ibn Yaser Street,31.1797531,30.0930635,"My home, Ammar Ibn Yaser Street, Bashteel Al-Balad, 12976, Egypt","['accommodation', 'accommodation.hotel']",0.0
سماح,Faiyum,Qaroun Street,30.8422466,29.3138776,"Grace, Qaroun Street, Second Darb Al Tabakhin, 63514, Egypt","['accommodation', 'accommodation.hotel']",0.0
قاعة المؤتمرات,Bani Sweif,Ring Road,31.1148876,29.0734481,"Conference Hall, Ring Road, Al Gezira Bahary, 62515, Egypt","['accommodation', 'accommodation.hotel']",0.0
HolydIes,Giza,Side Gamaa Al Doul Al Arabiya Street,31.2074897,30.059221,"HolydIes, Side Gamaa Al Doul Al Arabiya Street, El Agouza, Giza, 12654, Egypt","['accommodation', 'accommodation.hotel']",0.0
فندق لاڤي,Cairo,Talaat Harb Street,31.2418231,30.0525959,"Lavie Hotel, Talaat Harb Street, Bab al Luq, Cairo, 11956, Egypt","['accommodation', 'accommodation.hotel']",0.0
Lavie Hotel,Cairo,26th July Street,31.241769,30.0526148,"Lavie Hotel, 26th July Street, Al-Azbakeya, Cairo, 11574, Egypt","['accommodation', 'accommodation.hotel']",0.0
لي لي,Cairo,Sherif Pasha Street,31.2424756,30.0525168,"Ly ly, Sherif Pasha Street, Al-Azbakeya, Cairo, 11956, Egypt","['accommodation', 'accommodation.hotel']",0.0
منزلي مصر,Giza,Gada Street,31.197698,30.0446059,"منزلي مصر, Gada Street, El Mohandesin, Giza, 12615, Egypt","['accommodation', 'accommodation.hotel']",0.0
منتجع الاسيوطي سبورت,Faiyum,"Cairo, Asyout Western Desert Road",31.1139152,29.4017341,"منتجع الاسيوطي سبورت, Cairo, Asyout Western Desert Road, Egypt","['accommodation', 'accommodation.hotel']",0.0
فندق ميركور,Giza,Al Haram Street,31.1337285,29.986834,"فندق ميركور, Al Haram Street, Kom al Akhdar, Remaya Square, 12512, Egypt","['accommodation', 'accommodation.hotel']",0.0
pyramids family inn,Giza,Al Salam Street,31.1437447,29.9775111,"pyramids family inn, 2 Al Salam Street, Kom al Akhdar, Giza, 12125, Egypt","['accommodation', 'accommodation.hotel']",0.0
pyramids Overlook Inn,Giza,Bni Sofyan Street,31.1403401,29.975786,"pyramids Overlook Inn, Bni Sofyan Street, Kom al Akhdar, Giza, 12125, Egypt","['accommodation', 'accommodation.hotel']",0.0
هوليداي ان,Cairo,Kornish Al Nil Street,31.2478985,29.9606675,"Holiday Inn, Kornish Al Nil Street, Al-Maasara, Cairo, 11917, Egypt","['accommodation', 'accommodation.hotel', 'internet_access']",0.0
Pyramids plateau inn,Giza,Abou Al Houl Al Syahi Western Street,31.141815,29.9760233,"Pyramids plateau inn, 2 Abou Al Houl Al Syahi Western Street, Kom al Akhdar, Giza, 12557, Egypt","['accommodation', 'accommodation.hotel', 'internet_access']",0.0
The Shepherd Hotel,Cairo,Abd Al Qader Hamza Street,31.231877,30.0420866,"The Shepherd Hotel, Abd Al Qader Hamza Street, Bab al Luq, Cairo, 11519, Egypt","['accommodation', 'accommodation.hotel', 'tourism', 'tourism.sights']",0.0
Le Riad Hotel de Charme,Cairo,Atafet Borgwan,31.2617601,30.0521855,"Le Riad Hotel de Charme, Atafet Borgwan, El-Gamaliyya, Cairo, 11681, Egypt","['accommodation', 'accommodation.hotel']",0.0
شهاب,Cairo,Al Moshir Ahmed Ismail Street,31.3753113,29.8382924,"Home, Al Moshir Ahmed Ismail Street, Cairo, 11798, Egypt","['accommodation', 'accommodation.hotel']",0.0
صبحي,Giza,Mahmoud Abd Al Rahman Street,31.1855018,30.0845709,"صبحي, Mahmoud Abd Al Rahman Street, Bashteel Al-Balad, 12976, Egypt","['accommodation', 'accommodation.hotel']",0.0
شهاب,Cairo,Al Moshir Ahmed Ismail Street,31.3752231,29.8383088,"Sheehab, Al Moshir Ahmed Ismail Street, Cairo, 11798, Egypt","['accommodation', 'accommodation.hotel']",0.0
نهر النيل,Cairo,Kornish Al Nil Street,31.2501664,29.9570684,"نهر النيل, Kornish Al Nil Street, Al-Maasara, Cairo, 11917, Egypt","['accommodation', 'accommodation.hotel', 'man_made', 'man_made.water_tower', 'tourism.sights']",0.0
الخولي,Cairo,Al Moshir Ahmed Ismail Street,31.3754239,29.8385368,"الخولي, Al Moshir Ahmed Ismail Street, Cairo, 11798, Egypt","['accommodation', 'accommodation.hotel']",0.0
"Marriott Mena House, Cairo",Giza,"Cairo, Alexandria Desert Road",31.1327491,29.9858579,"Marriott Mena House, Cairo, 6 Cairo, Alexandria Desert Road, Giza, 12556, Egypt","['accommodation', 'accommodation.hotel']",0.0
The St. Regis Cairo,Cairo,Kornish Al Nil Street,31.227601,30.0630181,"The St. Regis Cairo, 1189 Kornish Al Nil Street, Al-Sabtiyya, Cairo, 11624, Egypt","['accommodation', 'accommodation.hotel']",0.0
جوهرة الهرم,Giza,Al Haram Street,31.154173,29.9913412,"Gawharet Al Ahram, Al Haram Street, Kom al Akhdar, Giza, 12574, Egypt","['accommodation', 'accommodation.hotel']",0.0
Royal pyramids Inn,Giza,Al Al Farazdq Street,31.1414565,29.9740365,"Royal pyramids Inn, 5 Al Al Farazdq Street, Nazlet al Batran, Giza, 12557, Egypt","['accommodation', 'accommodation.hotel']",0.0
Pyramids View apartment,Giza,Yehya Abd Al Naby Street,31.1415906,29.9742409,"Pyramids View apartment, 6 Yehya Abd Al Naby Street, Nazlet al Batran, Giza, 12557, Egypt","['accommodation', 'accommodation.hotel']",0.0
Pyramids Inn,Giza,Ibn Touloun Street,31.1438038,29.9727205,"Pyramids Inn, 12 Ibn Touloun Street, Nazlet al Batran, Giza, 12557, Egypt","['accommodation', 'accommodation.hotel']",0.0
Le Riad Pyramids Hotel,Giza,Rowda Al Ahram Street,31.1308122,29.9906676,"Le Riad Pyramids Hotel, Rowda Al Ahram Street, Remaya Square, 12512, Egypt","['accommodation', 'accommodation.hotel']",0.0
مارفل ستون هوتل,Giza,Zuqaq Garir,31.1415167,29.9749036,"Marvel Stone Hotel, Zuqaq Garir, Nazlet al Batran, Giza, 12125, Egypt","['accommodation', 'accommodation.hotel']",0.0
Pyramids Loft Guesthouse,Giza,Al Salam Street,31.1435767,29.975948,"Pyramids Loft Guesthouse, Al Salam Street, Kom al Akhdar, Giza, 12125, Egypt","['accommodation', 'accommodation.hotel']",0.0
City Hostel,Cairo,Al Gnena Street,31.2481125,30.0537395,"City Hostel, Al Gnena Street, Al-Azbakeya, Cairo, 11668, Egypt","['accommodation', 'accommodation.hotel']",0.0
Freedom Hostel (Good address),Cairo,Bank Masr Street,31.2426495,30.0483467,"Freedom Hostel (Good address), Bank Masr Street, Bab al Luq, Cairo, 42801, Egypt","['accommodation', 'accommodation.hotel']",0.0
Gresham Hotel,Cairo,Talaat Harb Street,31.2387148,30.0485745,"Gresham Hotel, 22 Talaat Harb Street, Bab al Luq, Cairo, 11519, Egypt","['accommodation', 'accommodation.hotel', 'internet_access', 'internet_access.free']",0.0
Tahrir Plaza Suites Hotel,Cairo,Merit Pasha Street,31.2348627,30.0486474,"Tahrir Plaza Suites Hotel, 19 Merit Pasha Street, Bab al Luq, Cairo, 11519, Egypt","['accommodation', 'accommodation.hotel']",0.0
Cleopatra Hotel,Cairo,Abd Al Salam Aref Street,31.2353548,30.0462969,"Cleopatra Hotel, Abd Al Salam Aref Street, Bab al Luq, Cairo, 11513, Egypt","['accommodation', 'accommodation.hotel', 'internet_access', 'internet_access.for_customers', 'wheelchair', 'wheelchair.limited']",0.0
Safir Hotel,Giza,Refaah Street,31.2138502,30.0353398,"Safir Hotel, Refaah Street, Dokki, Giza, 12612, Egypt","['accommodation', 'accommodation.hotel']",0.0
فندق نور الصباح,Cairo,Khan Al Khalili Street,31.2621557,30.0474934,"Nour Elsabah, Khan Al Khalili Street, Islamic Cairo, Cairo, 11261, Egypt","['accommodation', 'accommodation.hotel']",0.0
Memar Almorshedy,Cairo,Al Abany Street,31.3212088,29.985867,"Memar Almorshedy, Al Abany Street, Cairo, 11571, Egypt","['accommodation', 'accommodation.hotel']",0.0
Panorama Pyramids Inn,Giza,Abou Al Houl Al Syahi Western Street,31.1411272,29.9744838,"Panorama Pyramids Inn, Abou Al Houl Al Syahi Western Street, Kom al Akhdar, Giza, 12125, Egypt","['accommodation', 'accommodation.hotel']",0.0
Valencia,Cairo,Talaat Harb Street,31.23960778632605,30.0488426,"Valencia, 21 Talaat Harb Street, Bab al Luq, Cairo, 11519, Egypt","['accommodation', 'accommodation.hotel', 'building', 'building.accommodation']",0.0
Swiss Inn Pyramids Golf Resort,Giza,Al Wahat Road,31.046963874611155,29.9630842,"Swiss Inn Pyramids Golf Resort, Al Wahat Road, Gardina Park valley, 6th of October, 12585, Egypt","['accommodation', 'accommodation.hotel']",0.0
family palace hotel,Cairo,B Tech Passage,31.244515532911212,30.052170500000003,"family palace hotel, B Tech Passage, Al-Azbakeya, Cairo, 11574, Egypt","['accommodation', 'accommodation.hotel', 'building', 'building.accommodation', 'building.residential']",0.0
Giza palace,Giza,Side 26th of July Axis,31.002796,30.0179382,"Giza palace, Side 26th of July Axis, El Nada Compound, 12573, Egypt","['accommodation', 'accommodation.hotel']",0.0
Tiba Pyramids Hotel,Giza,Abou Al Houl Al Syahi Street,31.1414737,29.9865912,"Tiba Pyramids Hotel, Abou Al Houl Al Syahi Street, Kom al Akhdar, Remaya Square, 12512, Egypt","['accommodation', 'accommodation.hotel']",0.0
Cheops Pyramid In,Giza,Naser Alley,31.141299,29.9758937,"Cheops Pyramid In, Naser Alley, Kom al Akhdar, Giza, 12125, Egypt","['accommodation', 'accommodation.hotel']",0.0
Lagoona,Giza,Abou Al Houl Al Syahi Street,31.1536378,29.9568667,"Lagoona, Abou Al Houl Al Syahi Street, Nazlet al Batran, Remaya Square, 12561, Egypt","['accommodation', 'accommodation.hotel']",0.0
Trio Hotel Caroline Crillon,Giza,Surya Street,31.1949468,30.0527729,"Trio Hotel Caroline Crillon, Surya Street, El Mohandesin, Cairo, 13211, Egypt","['accommodation', 'accommodation.hotel']",0.0
The Square Boutique Hotel,Cairo,Mohamed Sabry Abou Alam Street,31.238954,30.0472745,"The Square Boutique Hotel, Mohamed Sabry Abou Alam Street, Bab al Luq, Cairo, 11613, Egypt","['accommodation', 'accommodation.hotel']",0.0
Hayat,Giza,Al Afdal Street,31.1413339,29.9753361,"Hayat, Al Afdal Street, Nazlet al Batran, Giza, 12125, Egypt","['accommodation', 'accommodation.hotel']",0.0
Nema Inn pyramids,Giza,Al Akhtal Street,31.1416903,29.9757572,"Nema Inn pyramids, Al Akhtal Street, Nazlet al Batran, Giza, 12125, Egypt","['accommodation', 'accommodation.hotel']",0.0
Cosmopolitan Hotel,Cairo,Abou Bakr Khairat Street,31.2403433,30.047706,"Cosmopolitan Hotel, Abou Bakr Khairat Street, Bab al Luq, Cairo, 42801, Egypt","['accommodation', 'accommodation.hotel']",0.0
TuT pyramids view,Giza,Al Shaeir Street,31.1411976,29.9726784,"TuT pyramids view, Al Shaeir Street, Nazlet al Batran, Giza, 12125, Egypt","['accommodation', 'accommodation.hotel', 'internet_access']",0.0
Pyramids Planet Hotel,Giza,Street 9,31.1079449,29.9614768,"Pyramids Planet Hotel, Street 9, Giza, 12559, Egypt","['accommodation', 'accommodation.hotel']",0.0
Central Cairo,Cairo,Sherif Pasha Street,31.2422026,30.0508356,"Central Cairo, 32 Sherif Pasha Street, Abdin, Cairo, 11513, Egypt","['accommodation', 'accommodation.hotel']",0.0
Eileen Hotel Cairo,Cairo,Youssef Al Gendy Street,31.2394293,30.0459882,"Eileen Hotel Cairo, 21 Youssef Al Gendy Street, Abdin, Cairo, 11513, Egypt","['accommodation', 'accommodation.hotel']",0.0
Centro Cairo Hotel,Cairo,Sherif Pasha Street,31.2421843,30.0507737,"Centro Cairo Hotel, 32 Sherif Pasha Street, Abdin, Cairo, 11513, Egypt","['accommodation', 'accommodation.hotel']",0.0
Jura el Galala,Suez,طريق ساحل السخنة Sukhna Coast Road,32.45550008943099,29.4698389,"Jura el Galala, طريق ساحل السخنة Sukhna Coast Road, Ain Sokhna, 43552, Egypt","['accommodation', 'accommodation.hotel', 'building', 'building.accommodation']",0.0
Jura El Galala,Suez,طريق ساحل السخنة Sukhna Coast Road,32.4553891,29.4698448,"Jura El Galala, طريق ساحل السخنة Sukhna Coast Road, Ain Sokhna, 43552, Egypt","['accommodation', 'accommodation.hotel']",0.0
Cecil,South Sinai,Al Salam Street,32.713555694941284,29.58735135,"Cecil, 2 Al Salam Street, Ras Sudr, 46612, Egypt","['accommodation', 'accommodation.hotel', 'building', 'building.accommodation', 'internet_access']",0.0
Dolphin,South Sinai,Al Mostashfa Street,32.71333530396656,29.587699800000003,"Dolphin, 4 Al Mostashfa Street, Ras Sudr, 46612, Egypt","['accommodation', 'accommodation.hotel', 'building', 'building.accommodation', 'internet_access']",0.0
العين السخنة,Suez,"Ain Sokhna, Zaafarana Road",32.34193484577597,29.59138835,"Hot Spring, Ain Sokhna, Zaafarana Road, 84514, Egypt","['accommodation', 'accommodation.hotel']",0.0
اللوحة,Suez,"Ain Sokhna, Zaafarana Road",32.347866521161095,29.5834864,"Portrait, Ain Sokhna, Zaafarana Road, 84514, Egypt","['accommodation', 'accommodation.hotel']",0.0
white House,South Sinai,Al Mostashfa Street,32.713470647860134,29.58756105,"white House, 3 Al Mostashfa Street, Ras Sudr, 46612, Egypt","['accommodation', 'accommodation.hotel', 'building', 'building.accommodation', 'internet_access']",0.0
Mövenpick Resort El Sokhna,Suez,"Ain Sokhna, Zaafarana Road",32.3692048262122,29.5454724,"Mövenpick Resort El Sokhna, Ain Sokhna, Zaafarana Road, 84514, Egypt","['accommodation', 'accommodation.hotel', 'internet_access']",0.0
Green Sudr Resort,South Sinai,"Ras Sedr, Al Tour Road",32.7524236,29.4524985,"Green Sudr Resort, Ras Sedr, Al Tour Road, Ras Sudr, Egypt","['accommodation', 'accommodation.hotel']",0.0
Sinai Star Resort,South Sinai,"Ras Sedr, Al Tour Road",32.7563174,29.4453913,"Sinai Star Resort, Ras Sedr, Al Tour Road, Ras Sudr, Egypt","['accommodation', 'accommodation.hotel']",0.0
Building,Suez,Parking H5,32.581092808911336,29.34906475,"Building, Parking H5, Egypt","['accommodation', 'accommodation.hotel', 'building', 'building.accommodation']",0.0
Building,Suez,Parking H5,32.5814776849832,29.3492611,"Building, Parking H5, Egypt","['accommodation', 'accommodation.hotel', 'building', 'building.accommodation']",0.0
Building,Suez,Parking H5,32.58070657608157,29.3488578,"Building, Parking H5, Egypt","['accommodation', 'accommodation.hotel', 'building', 'building.accommodation']",0.0
Building,Suez,Parking H5,32.58102890000001,29.34979415,"Building, Parking H5, Egypt","['accommodation', 'accommodation.hotel', 'building', 'building.accommodation']",0.0
Building,Suez,Parking H5,32.58042195,29.34947725,"Building, Parking H5, Egypt","['accommodation', 'accommodation.hotel', 'building', 'building.accommodation']",0.0
Building,Suez,Parking H5,32.58015697608157,29.3501325,"Building, Parking H5, Egypt","['accommodation', 'accommodation.hotel', 'building', 'building.accommodation']",0.0
Building,Suez,Parking H5,32.58057907606454,29.35034465,"Building, Parking H5, Egypt","['accommodation', 'accommodation.hotel', 'building', 'building.accommodation']",0.0
Building,Suez,Parking H5,32.57929118497587,29.34965445,"Building, Parking H5, Egypt","['accommodation', 'accommodation.hotel', 'building', 'building.accommodation']",0.0
Building,Suez,Parking H5,32.579978291088665,29.34846745,"Building, Parking H5, Egypt","['accommodation', 'accommodation.hotel', 'building', 'building.accommodation']",0.0
نجم البحر نادى البحر,Suez,"Side Suez, Ain Sokhna Road",32.3551983,29.6711338,"Starfish Club, Side Suez, Ain Sokhna Road, Ain Sokhna, Egypt","['accommodation', 'accommodation.hotel']",0.0
Hotel Diamond also known as Massa,Aswan,Al Tahrir Street,32.8757279,24.977658,"Hotel Diamond also known as Massa, Al Tahrir Street, Idfu City, 81644, Egypt","['accommodation', 'accommodation.hotel']",0.0
Hotel Amoun,Aswan,Al Gemhoureya Street,32.8764355,24.9763719,"Hotel Amoun, Al Gemhoureya Street, Idfu City, 81644, Egypt","['accommodation', 'accommodation.hotel']",0.0
Happy Land Hotel,Aswan,"Cairo, Aswan Eastern Desert Road",32.8895655,24.9906178,"Happy Land Hotel, Cairo, Aswan Eastern Desert Road, Idfu City, 81644, Egypt","['accommodation', 'accommodation.hotel']",0.0
إيكولودج الطرفة Ecolodge Al Tarfa,New Valley,"Al Farafrah, Al Wahat Al Dakhlah Road",28.92728021895717,25.6069142,"Al Tarfa Spa and Luxury Ecolodge, Al Farafrah, Al Wahat Al Dakhlah Road, القصر الإسلامية, Egypt","['accommodation', 'accommodation.hotel']",0.0
El-Negoom Hotel,New Valley,"Al Aouina, Al Hendawy Road",28.9803662,25.4991704,"El-Negoom Hotel, Al Aouina, Al Hendawy Road, Mut, 72711, Egypt","['accommodation', 'accommodation.hotel']",0.0
Bedouin Camp,New Valley,"Al Farafrah, Al Wahat Al Dakhlah Road",28.9496063,25.5606621,"Bedouin Camp, Al Farafrah, Al Wahat Al Dakhlah Road, Egypt","['accommodation', 'accommodation.hotel']",0.0
إيكولودج الطرفة Ecolodge Al Tarfa,New Valley,"Al Farafrah, Al Wahat Al Dakhlah Road",28.92728021895717,25.6069142,"Al Tarfa Spa and Luxury Ecolodge, Al Farafrah, Al Wahat Al Dakhlah Road, القصر الإسلامية, Egypt","['accommodation', 'accommodation.hotel']",0.0
El-Negoom Hotel,New Valley,"Al Aouina, Al Hendawy Road",28.9803662,25.4991704,"El-Negoom Hotel, Al Aouina, Al Hendawy Road, Mut, 72711, Egypt","['accommodation', 'accommodation.hotel']",0.0
Bedouin Camp,New Valley,"Al Farafrah, Al Wahat Al Dakhlah Road",28.9496063,25.5606621,"Bedouin Camp, Al Farafrah, Al Wahat Al Dakhlah Road, Egypt","['accommodation', 'accommodation.hotel']",0.0
Small Cafe,Giza,"Al Giza, Al Wahat Al Bahareya Road",29.6621676,29.3301527,"Small Cafe, Al Giza, Al Wahat Al Bahareya Road, Egypt","['catering', 'catering.cafe']",0.0
رست طريق الوحات,Giza,"Al Giza, Al Wahat Al Bahareya Road",29.7223033,29.4159804,"رست طريق الوحات, Al Giza, Al Wahat Al Bahareya Road, Egypt","['catering', 'catering.restaurant']",0.0
Aspero Restaurant,Giza,Al Nil Street,31.21815952924716,30.02610385,"Aspero Restaurant, 133 Al Nil Street, Dokki, Giza, 12513, Egypt","['building', 'building.catering', 'catering', 'catering.restaurant', 'catering.restaurant.american', 'halal', 'internet_access', 'vegan', 'vegetarian']",0.0
VIOLA ROOFTOP,Giza,Al Nil Street,31.218413353265184,30.02512285,"VIOLA ROOFTOP, 135 Al Nil Street, Dokki, Giza, 12513, Egypt","['building', 'building.catering', 'catering', 'catering.restaurant', 'halal']",0.0
ماكدونالدز,Cairo,Talaat Mustafa Road,31.640818906010608,30.085261600000003,"McDonald's, Talaat Mustafa Road, Cairo, 19519, Egypt","['building', 'building.catering', 'catering', 'catering.fast_food', 'catering.fast_food.burger']",0.0
Crafted Home كرافتيد هوم,Cairo,Adly Street,31.242724404797265,30.051018900000003,"Crafted Home كرافتيد هوم, 26 Adly Street, Abdin, Cairo, 11518, Egypt","['building', 'building.catering', 'catering', 'catering.cafe', 'catering.cafe.coffee', 'catering.cafe.coffee_shop', 'internet_access', 'internet_access.free']",0.0
بلاي ستيشن ايموشن,Cairo,Road 86,31.376049,30.1072204,"emotion playstation, 12 Road 86, Cairo, 11351, Egypt","['catering', 'catering.cafe', 'internet_access']",0.0
ورد الشام,Cairo,Ahmed Fakhry Street,31.348695,30.0659772,"ورد الشام, 8 أ Ahmed Fakhry Street, Cairo, 11391, Egypt","['catering', 'catering.restaurant', 'internet_access']",0.0
ورد الشام,Cairo,Ahmed Fakhry Street,31.3486371,30.0656911,"Wardelsham, 8 أ Ahmed Fakhry Street, Cairo, 11391, Egypt","['catering', 'catering.restaurant', 'internet_access']",0.0
يحي العطار,Giza,Al Dokki Street,31.2118201,30.0363544,"yahya elattar, Al Dokki Street, Dokki, Giza, 12611, Egypt","['catering', 'catering.fast_food']",0.0
The Courtyard Maadi,Cairo,Extension Palestine Street,31.2848812,29.9776776,"The Courtyard Maadi, 2 Extension Palestine Street, Cairo, 11742, Egypt","['catering', 'catering.restaurant']",0.0
Il Pennello Ceramic Café,Cairo,Omar Ibn Al Khatab Street,31.333329,30.1002143,"Il Pennello Ceramic Café, 2 Omar Ibn Al Khatab Street, Heliopolis, Cairo, 11757, Egypt","['catering', 'catering.cafe']",0.0
المصطبه,Giza,Mohamed Saleh Street,31.2089154,30.0407592,"المصطبه, 2 Mohamed Saleh Street, Dokki, Giza, 12615, Egypt","['catering', 'catering.cafe', 'internet_access', 'internet_access.free']",0.0
أهل اليمن,Giza,Al Dokki Street,31.2112632,30.0402345,"أهل اليمن, 63 Al Dokki Street, Dokki, Giza, 12611, Egypt","['catering', 'catering.restaurant', 'catering.restaurant.regional', 'internet_access']",0.0
shikh el araab (saif),Giza,Tersa Street,31.1622767,29.9897928,"shikh el araab (saif), 24 Tersa Street, Kom al Akhdar, Giza, 12574, Egypt","['catering', 'catering.restaurant', 'halal']",0.0
تويست فود,Cairo,Al Dayer West Street,31.3014692,29.8176524,"Twist Food, Al Dayer West Street, Cairo, 11915, Egypt","['catering', 'catering.restaurant']",0.0
ستاربكس,Cairo,Al Seka Al Tougary Street,31.2279457,30.071573,"Starbucks, Al Seka Al Tougary Street, Al-Sabtiyya, Cairo, 11624, Egypt","['catering', 'catering.cafe']",0.0
calistoegypt,Giza,Waslet Dahshur Road,30.9700716,30.020492,"calistoegypt, G21CITYPARK Waslet Dahshur Road, October Hills, 12588, Egypt","['catering', 'catering.restaurant', 'internet_access', 'internet_access.for_customers']",0.0
بازوكا,Cairo,Riyad Pasha Street,31.3367216,29.8428623,"Bazzoka, Riyad Pasha Street, Cairo, 11421, Egypt","['catering', 'catering.restaurant']",0.0
بازوكا,Cairo,Azzam Mosque Street,31.3363224,29.8530071,"Bazzoka, Azzam Mosque Street, Cairo, 11795, Egypt","['catering', 'catering.restaurant']",0.0
بازوكا,Cairo,Moustafa Safwat Street,31.3393518,29.8457504,"Bazzoka, Moustafa Safwat Street, Cairo, 11421, Egypt","['catering', 'catering.restaurant']",0.0
بازوكا,Cairo,Al Swofyh Street,31.3266198,29.8577456,"Bazzoka, Al Swofyh Street, Cairo, 11795, Egypt","['catering', 'catering.restaurant']",0.0
بازوكا,Cairo,Al Moshir Ahmed Ismail Street,31.3811896,29.8352639,"Bazzoka, Al Moshir Ahmed Ismail Street, Cairo, 11926, Egypt","['catering', 'catering.restaurant']",0.0
كافيه دوبامين,Cairo,Maahad Al Gezira Street,31.3035428,30.0113263,"Dopamine, 9027 Maahad Al Gezira Street, Cairo, 11571, Egypt","['catering', 'catering.cafe', 'internet_access']",0.0
مطعم باستاريتو,Giza,Salah Al Din Street,30.9483611,29.9718291,"Pastarito restaurant, 109 Salah Al Din Street, 1st District, 6th of October, 12596, Egypt","['catering', 'catering.restaurant']",0.0
كبدةومخ الشرقاوي ألماظة مصرالجديدة,Cairo,Ezzat Mohamed Selim Street,31.3531436,30.0849215,"كبدةومخ الشرقاوي ألماظة مصرالجديدة, 5 Ezzat Mohamed Selim Street, Heliopolis, Cairo, 11834, Egypt","['catering', 'catering.fast_food']",0.0
Prince Krish,Giza,Madrasa Geel 2000 Street,30.9443885,29.9667613,"Prince Krish, Madrasa Geel 2000 Street, 2nd District, 6th of October, 12596, Egypt","['catering', 'catering.restaurant', 'catering.restaurant.kebab']",0.0
Kazaz,Cairo,Al Bostan Al Saedi Street,31.23923505,30.0470866,"Kazaz, 7 Al Bostan Al Saedi Street, Abdin, Cairo, 11513, Egypt","['building', 'building.catering', 'catering', 'catering.fast_food']",0.0
Zööba,Cairo,Al Saleh Ayoub Street,31.21927545828649,30.0609991,"Zööba, 16 Al Saleh Ayoub Street, Al-Sabtiyya, 11568, Egypt","['building', 'building.catering', 'building.residential', 'catering', 'catering.restaurant', 'catering.restaurant.regional']",0.0
Bawabat,Giza,"Madina Al Selmaneya, Ezbet Al Safi Road",30.8132884619972,30.2089248,"Bawabat, Km 58 Madina Al Selmaneya, Ezbet Al Safi Road, Al Hagir, Egypt","['catering', 'catering.restaurant']",0.0
NOLA Cupcakes,Cairo,Hassan Asem Street,31.2227251,30.0613878,"NOLA Cupcakes, 4 Hassan Asem Street, Al-Sabtiyya, 11211, Egypt","['catering', 'catering.cafe']",0.0
La Poire,Cairo,Street 9,31.2606296,29.9568246,"La Poire, 70 Street 9, Ma‘di Al Khahiri, Cairo, 11728, Egypt","['catering', 'catering.cafe']",0.0
Dragon House,Cairo,Street 82,31.2596408,29.9566627,"Dragon House, Street 82, Ma‘di Al Khahiri, Cairo, 11728, Egypt","['catering', 'catering.restaurant']",0.0
باستاويسي,Giza,Al Markazy Axis,30.9444385,29.9717535,"Pastaweesy, Al Markazy Axis, 3rd District, 6th of October, 12596, Egypt","['catering', 'catering.fast_food', 'halal']",0.0
بيتزا هت,Giza,Al Haram Street,31.1604591,29.9942663,"Pizza Hut, 202 Al Haram Street, Kom al Akhdar, Giza, 12574, Egypt","['catering', 'catering.restaurant', 'catering.restaurant.pizza']",0.0
Sattva Steps,Cairo,Ahmed Heshmat Street,31.2209509,30.0678913,"Sattva Steps, 35 Ahmed Heshmat Street, Al-Sabtiyya, 11568, Egypt","['catering', 'catering.restaurant']",0.0
Ziznia,Giza,Mourad Street,31.2128602,30.0162032,"Ziznia, Mourad Street, Been Al-Sarayat, Giza, 12541, Egypt","['catering', 'catering.cafe', 'internet_access']",0.0
Sola Cafe & Restaurant,Cairo,Moustafa Abd Al Aal Street,31.3403102,30.0795538,"Sola Cafe & Restaurant, Moustafa Abd Al Aal Street, Cairo, 11736, Egypt","['catering', 'catering.restaurant', 'catering.restaurant.french']",0.0
بيتزا هات,Cairo,Al Sergani Street,31.2737894,30.0628896,"Pizza Hut, Al Sergani Street, El-Waily, Cairo, 11381, Egypt","['catering', 'catering.fast_food', 'catering.fast_food.pizza']",0.0
Partido cafe,Cairo,Abd Al Latif Hamza Street,31.3510806,30.0683536,"Partido cafe, 11 Abd Al Latif Hamza Street, Cairo, 11391, Egypt","['catering', 'catering.cafe', 'internet_access']",0.0
Allaga,Cairo,Abd Al Latif Hamza Street,31.3511239,30.0683328,"Allaga, 11 Abd Al Latif Hamza Street, Cairo, 11391, Egypt","['catering', 'catering.fast_food', 'internet_access']",0.0
Zooba,Cairo,Side El Orouba Axis,31.4117854,30.0177975,"Zooba, Downtown Mall Side El Orouba Axis, Cairo, 11528, Egypt","['catering', 'catering.restaurant']",0.0
اسماك القبه,Cairo,Masr W Al Sudan Street,31.2887756,30.087337,"ElQubba’s Fish resturant, 165 Masr W Al Sudan Street, Cairo, 11663, Egypt","['catering', 'catering.restaurant']",0.0
محمصات لؤلؤة الدقى,Giza,Al Dokki Street,31.2118269,30.0363139,"loloa nuts, Al Dokki Street, Dokki, Giza, 12611, Egypt","['catering', 'catering.fast_food']",0.0
مطعم ابو حسين العراقي,Giza,Teraa Al Mansoureya Street,31.1289729,29.9928348,"Abo Hussien Al-Iraqi resturant, Teraa Al Mansoureya Street, Remaya Square, 12571, Egypt","['catering', 'catering.restaurant', 'internet_access']",0.0
The Location,Cairo,Asmaa Zaghloul Street,31.3181851,30.077194,"The Location, 20 Asmaa Zaghloul Street, Cairo, 11759, Egypt","['catering', 'catering.cafe']",0.0
Shiva Indian Restaurant,Cairo,Mohamed Abaid Street,31.338793,30.0879398,"Shiva Indian Restaurant, 11 Mohamed Abaid Street, Heliopolis, Cairo, 11736, Egypt","['catering', 'catering.restaurant']",0.0
El Ezba,Giza,"Shabramant, Monsha'et Dahshur Road",31.1963346,29.9377523,"El Ezba, Shabramant, Monsha'et Dahshur Road, Shabramant, 12947, Egypt","['catering', 'catering.restaurant']",0.0
الشيف صابر,Giza,Al Dokki Street,31.2112717,30.0401088,"chef saber, Al Dokki Street, Dokki, Giza, 12611, Egypt","['catering', 'catering.restaurant', 'catering.restaurant.seafood']",0.0
ماكدونالدز,Al Qalyubiya,Doctor Atef Sedki Street,31.1801198,30.4667559,"Mcdonalds, Doctor Atef Sedki Street, Banha, 13512, Egypt","['catering', 'catering.restaurant']",0.0
Location Cafe,Giza,Gamaa Al Doul Al Arabiya Street,31.2025013,30.0548471,"Location Cafe, 13 Gamaa Al Doul Al Arabiya Street, El Mohandesin, Cairo, 12655, Egypt","['catering', 'catering.cafe', 'internet_access', 'internet_access.free']",0.0
تكية المدينة,Cairo,Al Khamseen Street,31.3064595,29.9644612,"تكية المدينة, ٤ي Al Khamseen Street, Cairo, 00007, Egypt","['catering', 'catering.restaurant', 'internet_access']",0.0
نادى التجاريين,Al Minufiya,Gammal Abd Al Naser Street,31.0122068,30.5624494,"egybest, Gammal Abd Al Naser Street, Shibin Al-Kom, 32728, Egypt","['catering', 'catering.cafe', 'internet_access']",0.0
مشويات ابو عميرة,Giza,Al Tharwah Al Maadania Street,31.096371,29.9800996,"مشويات ابو عميرة, Al Tharwah Al Maadania Street, 12572, Egypt","['catering', 'catering.restaurant']",0.0
مطعم ريم البادية,Cairo,Side Middle Ring Road,31.5369788,29.953775,"مطعم ريم البادية, 2ك Side Middle Ring Road, Cairo, Egypt","['catering', 'catering.restaurant']",0.0
أسماك الجمهورية,Cairo,26th July Street,31.2205079,30.0605152,"أسماك الجمهورية, 122 26th July Street, Al-Sabtiyya, 11211, Egypt","['catering', 'catering.restaurant', 'catering.restaurant.fish', 'catering.restaurant.seafood']",0.0
Down The Bridge Cafe,Cairo,Abou Bakr Al Sedik Street,31.3387065,30.0970602,"Down The Bridge Cafe, Abou Bakr Al Sedik Street, Heliopolis, Cairo, 11736, Egypt","['catering', 'catering.cafe']",0.0
كرك بوي,Cairo,The Ring Road,31.3996589,30.0150159,"Karak Boy, The Ring Road, Taj City, Cairo, 19111, Egypt","['catering', 'catering.cafe']",0.0
مطعم fries&pasta,Cairo,Omar Ibn Al Khatab Street,31.2764894,29.9704838,"مطعم fries&pasta, 9 Omar Ibn Al Khatab Street, Cairo, 11742, Egypt","['catering', 'catering.restaurant', 'internet_access']",0.0
مطعم زهرة الشام,Giza,Al Ashrin Street,31.18426,30.0218102,"مطعم زهرة الشام, برج الباشا Al Ashrin Street, Bulaq Al-Dakrour, Giza, 12621, Egypt","['catering', 'catering.restaurant', 'catering.restaurant.sandwich', 'halal']",0.0
بازوكا,Cairo,Abd Allah Pasha Street,31.3302072,29.8481559,"Bazzoka, Abd Allah Pasha Street, Cairo, 11735, Egypt","['catering', 'catering.restaurant']",0.0
بازوكا,Cairo,Omar Ibn Abd Al Aziz Street,31.3294432,29.8406522,"Bazzoka, Omar Ibn Abd Al Aziz Street, Cairo, 11746, Egypt","['catering', 'catering.restaurant']",0.0
كرم الشام,Cairo,Shobra Street,31.2452011,30.0807463,"Karam Al Sham, Shobra Street, Rod El-Farag, Cairo, 11697, Egypt","['catering', 'catering.restaurant']",0.0
سينابون,Cairo,Gamal Abd Al Naser Axis,31.4326434,29.992027,"CINNABON, Gamal Abd Al Naser Axis, Cairo, 11835, Egypt","['catering', 'catering.restaurant']",0.0
مطعم درويش الكبابجي,Al Qalyubiya,Mohamed Atef Al Sadat Street,31.5932811,30.1730566,"مطعم درويش الكبابجي, Mohamed Atef Al Sadat Street, Cairo, 11837, Egypt","['catering', 'catering.restaurant']",0.0
Vegan in Our House,Cairo,Street 82,31.2596004,29.9566424,"Vegan in Our House, Street 82, Ma‘di Al Khahiri, Cairo, 11728, Egypt","['catering', 'catering.restaurant', 'vegan']",0.0
رزايه,Cairo,Ahmed Taysir Street,31.3269884,30.0794477,"Rozaya, Ahmed Taysir Street, Cairo, 11737, Egypt","['catering', 'catering.fast_food']",0.0
Caf,Giza,Bni Sofyan Street,31.1405385,29.9754028,"Caf, Bni Sofyan Street, Kom al Akhdar, Giza, 12125, Egypt","['catering', 'catering.cafe']",0.0
Caf,Cairo,Al Mahgr Road,31.4476831,29.9524572,"Caf, Al Mahgr Road, Cairo, 11835, Egypt","['catering', 'catering.cafe']",0.0
Caf,Cairo,Abd Al Rahman Al Jabarti Street,31.4033246,30.0089648,"Caf, Abd Al Rahman Al Jabarti Street, Cairo, 11936, Egypt","['catering', 'catering.cafe']",0.0
Caf,Giza,Al Bostan Street,31.0108638,30.0255518,"Caf, Al Bostan Street, El Nada Compound, 12573, Egypt","['catering', 'catering.cafe']",0.0
Caf,Cairo,Wasem Hassn Street,31.2340665,30.0468725,"Caf, Wasem Hassn Street, Bab al Luq, Cairo, 11556, Egypt","['catering', 'catering.cafe']",0.0
Beano's,Cairo,Street 10,31.26041545,29.9584424,"Beano's, Street 10, Ma‘di Al Khahiri, Cairo, 11728, Egypt","['catering', 'catering.cafe', 'internet_access', 'internet_access.free']",0.0
باتيو القاهرة الجديدة,Cairo,Moustafa Amin Street,31.42437004996179,30.0227747,"Patio New Cairo, Moustafa Amin Street, New Cairo City, 11835, Egypt","['building', 'building.catering', 'catering', 'catering.restaurant']",0.0
zed,Giza,Cairo University Street,31.211845665798045,30.025736,"zed, Cairo University Street, Been Al-Sarayat, Giza, 12541, Egypt","['building', 'building.catering', 'catering', 'catering.cafe']",0.0
Mood Swing,Cairo,Al Thawra Street,31.328838,30.0898042,"Mood Swing, Al Thawra Street, Heliopolis, Cairo, 11737, Egypt","['catering', 'catering.restaurant', 'catering.restaurant.international']",0.0
Grand Cafe,Cairo,Kornish Al Nil Street,31.2525585,29.9555574,"Grand Cafe, Kornish Al Nil Street, Al-Maasara, Cairo, 11917, Egypt","['catering', 'catering.restaurant']",0.0
Zeera Cafe,Cairo,Street 79,31.268600945754716,29.9662241,"Zeera Cafe, 48 Street 79, Ma‘di Al Khahiri, Cairo, 11728, Egypt","['building', 'building.catering', 'catering', 'catering.cafe']",0.0
Carlton Roof Garden,Cairo,Al Borsa Street,31.24078965281632,30.05321105,"Carlton Roof Garden, Al Borsa Street, Al-Azbakeya, Cairo, 11574, Egypt","['catering', 'catering.restaurant']",0.0
Sudan Restaurant,Cairo,Adly Street,31.24579134056191,30.05090055,"Sudan Restaurant, 6 Adly Street, Abdin, Cairo, 11518, Egypt","['building', 'building.catering', 'catering', 'catering.restaurant', 'catering.restaurant.african']",0.0
ستاربكس,Cairo,Talaat Moustafa Road,31.61336185,30.1037819,"Starbucks, Talaat Moustafa Road, Cairo, 19511, Egypt","['building', 'building.catering', 'catering', 'catering.cafe', 'catering.cafe.coffee', 'catering.cafe.coffee_shop']",0.0
ماكدونالدز,Giza,Shehab Street,31.19617438822557,30.05584255,"McDonald's, 57 Shehab Street, El Mohandesin, Cairo, 12655, Egypt","['building', 'building.catering', 'catering', 'catering.fast_food', 'catering.fast_food.burger']",0.0
كافية قانينو,Ad Dakahliya,شارع المدارس,31.331424926311257,30.6486243,"Qanino Cafe, 12 شارع المدارس, ميت ابو خالد, 14666, Egypt","['building', 'building.catering', 'catering', 'catering.cafe', 'internet_access', 'internet_access.free']",0.0
قهوة ريش,Cairo,Talaat Harb Street,31.2382388,30.0469677,"Café Riche, Talaat Harb Street, Bab al Luq, Cairo, 11556, Egypt","['catering', 'catering.cafe']",0.0
جروبي,Cairo,Kasr El Nil Street,31.2380835,30.0475371,"Groppi, Kasr El Nil Street, Bab al Luq, Cairo, 11556, Egypt","['catering', 'catering.cafe', 'commercial', 'commercial.food_and_drink', 'commercial.food_and_drink.bakery']",0.0
Wiener Wald,Cairo,Street 9,31.2635337,29.95355,"Wiener Wald, 45 Street 9, Ma‘di Al Khahiri, Cairo, 11431, Egypt","['catering', 'catering.fast_food']",0.0
مطعم كايرو كيتشن Cairo Kitchen,Cairo,Al Aziz Othman Street,31.2210828,30.0599981,"Cairo Kitchen, 118 Al Aziz Othman Street, Al-Sabtiyya, 11211, Egypt","['catering', 'catering.restaurant']",0.0
Espresso lab,Cairo,Street 213,31.2768049,29.9603487,"Espresso lab, 23 Street 213, Cairo, 11431, Egypt","['catering', 'catering.cafe', 'internet_access']",0.0
Cilantro,Cairo,Street 9,31.2590322,29.958998,"Cilantro, 90 Street 9, Ma‘di Al Khahiri, Cairo, 11728, Egypt","['catering', 'catering.cafe', 'catering.cafe.coffee', 'catering.cafe.coffee_shop']",0.0
Asian Corner,Cairo,Street 18,31.2691283,29.9583195,"Asian Corner, Street 18, Cairo, 11431, Egypt","['catering', 'catering.restaurant', 'catering.restaurant.asian']",0.0
Dishes,Cairo,Street 206,31.2755092,29.9620871,"Dishes, Street 206, Cairo, 11431, Egypt","['catering', 'catering.restaurant']",0.0
Coffeeshop Company,Cairo,Al Nasr Street,31.2842284,29.975712,"Coffeeshop Company, Al Nasr Street, Cairo, 11742, Egypt","['catering', 'catering.cafe', 'catering.cafe.coffee', 'catering.cafe.coffee_shop']",0.0
Mandarine Koueider,Cairo,Hassan Asem Street,31.2199006,30.0625362,"Mandarine Koueider, 17 Hassan Asem Street, Al-Sabtiyya, 11211, Egypt","['catering', 'catering.cafe', 'commercial', 'commercial.food_and_drink', 'commercial.food_and_drink.bakery']",0.0
ماكدونالدز,Giza,Al Haram Street,31.1603223,29.9942118,"McDonald's, Al Haram Street, Kom al Akhdar, Giza, 12574, Egypt","['catering', 'catering.fast_food', 'catering.fast_food.burger', 'wheelchair', 'wheelchair.limited']",0.0
دجاج كنتاكي,Giza,Rokn Al Safa Street,31.1606466,29.9943488,"KFC, Rokn Al Safa Street, Kom al Akhdar, Giza, 12574, Egypt","['catering', 'catering.fast_food']",0.0
Chinese Dumpling Restaurant,Cairo,Street 233,31.2781404,29.9597874,"Chinese Dumpling Restaurant, Street 233, Cairo, 11431, Egypt","['catering', 'catering.restaurant', 'catering.restaurant.chinese']",0.0
Lifeguard,Giza,Omar El Gizawy Street,31.2053704,30.0649498,"Lifeguard, Omar El Gizawy Street, Meet Okba, Giza, 12658, Egypt","['catering', 'catering.cafe', 'internet_access', 'wheelchair', 'wheelchair.limited']",0.0
Ful Cart,Giza,Al Mahrousa Street,31.2051316,30.0649034,"Ful Cart, Al Mahrousa Street, Meet Okba, Giza, 12658, Egypt","['catering', 'catering.fast_food']",0.0
Spectra,Cairo,Al Zahaby Street,31.3126865,30.0892244,"Spectra, Al Zahaby Street, Al-Zaitoun, Cairo, 11774, Egypt","['catering', 'catering.restaurant']",0.0
Baladina,Cairo,Kornish Al Nil Street,31.2342888,29.9745973,"Baladina, Kornish Al Nil Street, Al-Maasara, Cairo, 11917, Egypt","['catering', 'catering.restaurant', 'catering.restaurant.arab']",0.0
horany fish,Giza,Al Nozha Street,31.004429,30.0514488,"horany fish, Al Nozha Street, El Rabwa, 12593, Egypt","['catering', 'catering.restaurant']",0.0
قهوة المعلم احمد يونس,Giza,Fawad Mohy Al Din Square,31.2010716,30.0535885,"قهوة المعلم احمد يونس, Fawad Mohy Al Din Square, El Mohandesin, Cairo, 12655, Egypt","['catering', 'catering.cafe', 'internet_access', 'vegetarian']",0.0
Didos Al Dente,Cairo,Bahgat Ali Street,31.2194106,30.0687987,"Didos Al Dente, Bahgat Ali Street, Al-Sabtiyya, 12653, Egypt","['catering', 'catering.restaurant']",0.0
Costa,Cairo,Sherif Pasha Street,31.2421766,30.0490794,"Costa Coffee, Sherif Pasha Street, Bab al Luq, Cairo, 42801, Egypt","['catering', 'catering.cafe', 'catering.cafe.coffee', 'catering.cafe.coffee_shop']",0.0
ابو رحمه,Giza,Street 9,30.9008865,29.9583157,"ابو رحمه, Street 9, 12th District, 6th of October, 15555, Egypt","['catering', 'catering.restaurant']",0.0
Mazag Cafe - كافيه مزاج,Al Qalyubiya,23rd July Street,31.3634597,30.2167499,"Mazag Cafe - كافيه مزاج, 23rd July Street, Al-Obour, 13763, Egypt","['catering', 'catering.cafe', 'internet_access']",0.0
Kanaka Cafe,Giza,El Geish Street,31.0893443,29.9587138,"Kanaka Cafe, El Geish Street, Ash Sheikh Zayed, 12587, Egypt","['catering', 'catering.cafe', 'internet_access']",0.0
مطعم الخيرات,Cairo,Al Shahid Farid Samikuh Street,31.343773,30.114584,"مطعم الخيرات, Al Shahid Farid Samikuh Street, Hadayeq Al-Zaitoun, Cairo, 11843, Egypt","['catering', 'catering.restaurant']",0.0
ريفيري,Cairo,Abou Gaafar Al Nahas Street,31.3406613,30.0812225,"ريفيري, Abou Gaafar Al Nahas Street, Cairo, 11736, Egypt","['catering', 'catering.restaurant']",0.0
كنوز البحر,Giza,Al Madrasa Street,31.2094018,29.9786049,"كنوز البحر, Al Madrasa Street, Giza, 12519, Egypt","['catering', 'catering.fast_food', 'commercial', 'commercial.food_and_drink', 'commercial.food_and_drink.seafood']",0.0
مولانا كريب 2,Cairo,Al Horeya Street,31.3009949,30.121931,"Crepe Mawlana 2, Al Horeya Street, Ain Shams, Cairo, 11714, Egypt","['catering', 'catering.fast_food']",0.0
مطعم أبو خاطر,Al Qalyubiya,Abd Al Azim Bakry Street,31.293921,30.1261757,"Abou khater, Abd Al Azim Bakry Street, Musturud, Shubra al Khayma, 11871, Egypt","['catering', 'catering.restaurant']",0.0
كبابجي الزهراء,Cairo,Omar Al Mokhtar Street,31.2980271,30.1257389,"Elzahraa kabab, Omar Al Mokhtar Street, Cairo, 11871, Egypt","['catering', 'catering.restaurant']",0.0
داديز برغر,Cairo,Moustafa Amin Street,31.4241254,30.0227992,"Daddy's Burger, Moustafa Amin Street, Cairo, 11835, Egypt","['catering', 'catering.restaurant', 'catering.restaurant.burger']",0.0
توسكانا باستا غريل,Cairo,Moustafa Amin Street,31.4245975,30.0229781,"Tuscany Pasta Grill, Moustafa Amin Street, Cairo, 11835, Egypt","['catering', 'catering.restaurant', 'catering.restaurant.italian', 'catering.restaurant.pizza']",0.0
ببر غريل لونج,Cairo,Moustafa Amin Street,31.4241737,30.0226576,"Pepper Grill Lounge, Moustafa Amin Street, Cairo, 11835, Egypt","['catering', 'catering.restaurant', 'catering.restaurant.regional']",0.0
فرسل كنترب كويزين,Cairo,Moustafa Amin Street,31.4241228,30.0228759,"Versal Country Cuisine, Moustafa Amin Street, Cairo, 11835, Egypt","['catering', 'catering.restaurant']",0.0
كفي بريك,Cairo,Moustafa Amin Street,31.4244875,30.0229247,"Coffee Break, Moustafa Amin Street, Cairo, 11835, Egypt","['catering', 'catering.cafe']",0.0
Osta Basha,Giza,El Geish Street,31.0892516,29.9581042,"Osta Basha, El Geish Street, Ash Sheikh Zayed, 12587, Egypt","['catering', 'catering.restaurant']",0.0
Azar Hotek***,Cairo,Adly Street,31.2444065,30.0512617,"Azar Hotek***, 09 Adly Street, Al-Azbakeya, Cairo, 11574, Egypt","['catering', 'catering.cafe']",0.0
باتيو فود هب,Cairo,Youssef Al Sebaaei Street,31.4266661,30.0235343,"Patio food hub, Youssef Al Sebaaei Street, Cairo, 11835, Egypt","['catering', 'catering.restaurant']",0.0
Jungle Club,Cairo,Street 11,31.3391126,29.8413658,"Jungle Club, Street 11, Cairo, 11723, Egypt","['catering', 'catering.cafe', 'internet_access']",0.0
Rumah Makan Bandung,Cairo,Mohamed Farid Abou Hadid Street,31.3359696,30.0436516,"Rumah Makan Bandung, Mohamed Farid Abou Hadid Street, Nasr City, Cairo, 11717, Egypt","['catering', 'catering.restaurant']",0.0
Mori Sushi,Cairo,Baha' Al Din Qaraqosh Street,31.2176353,30.0579481,"Mori Sushi, Baha' Al Din Qaraqosh Street, Al-Sabtiyya, 11211, Egypt","['catering', 'catering.restaurant', 'catering.restaurant.japanese', 'catering.restaurant.sushi']",0.0
U Bistro & Bar,Cairo,26th July Street,31.2245875,30.0589761,"U Bistro & Bar, 26th July Street, Al-Sabtiyya, 11211, Egypt","['catering', 'catering.restaurant', 'catering.restaurant.steak_house']",0.0
City Crepe,Giza,Abd Al Khalek Sarwat Street,30.9641363,29.9936283,"City Crepe, Abd Al Khalek Sarwat Street, Gardina Park valley, 6th of October, 12568, Egypt","['catering', 'catering.fast_food']",0.0
بن العمدة,Giza,Meena Street,31.0993466,29.9525607,"Elomda Coffee, 107 Meena Street, Giza, 12559, Egypt","['catering', 'catering.cafe', 'catering.cafe.coffee', 'catering.cafe.coffee_shop']",0.0
Maharaja,Giza,Side Al Bostan Street,31.0108055,30.0273069,"Maharaja, Side Al Bostan Street, El Nada Compound, 12573, Egypt","['catering', 'catering.restaurant', 'catering.restaurant.indian']",0.0
Griix,Cairo,Street 231,31.2767748,29.9615956,"Griix, 38 Street 231, Cairo, 11728, Egypt","['catering', 'catering.restaurant', 'catering.restaurant.greek']",0.0
Buffalo Burger,Cairo,Al Nozha Street,31.3431397,30.099436,"Buffalo Burger, 105 Al Nozha Street, Heliopolis, Cairo, 11736, Egypt","['catering', 'catering.fast_food', 'catering.fast_food.burger']",0.0
Gallery Cafe,Eastern,Abd Allah Ibn Masoud Street,31.4884799,30.5905714,"Gallery Cafe, 8 Abd Allah Ibn Masoud Street, Al Zaqaziq, 44519, Egypt","['catering', 'catering.cafe', 'internet_access', 'internet_access.free']",0.0
Asian Corner,Cairo,Al Asraa Street,31.3160378,29.9812374,"Asian Corner, Al Asraa Street, Cairo, 00007, Egypt","['catering', 'catering.restaurant', 'catering.restaurant.asian']",0.0
Sachi,Cairo,Cleopatra Street,31.3250202,30.0881147,"Sachi, 3 Cleopatra Street, Heliopolis, Cairo, 11737, Egypt","['catering', 'catering.restaurant']",0.0
مطعم أبو العربى للمأكولات البحرية,Cairo,Street 90,31.4207257,30.0191507,"مطعم أبو العربى للمأكولات البحرية, Street 90, Cairo, 11835, Egypt","['catering', 'catering.restaurant']",0.0
مطعم وح وح للسندوتشات,Cairo,Street 90,31.4205361,30.0191595,"مطعم وح وح للسندوتشات, Street 90, Cairo, 11835, Egypt","['catering', 'catering.restaurant']",0.0
دوار العمده عطاالله ابوسريع,Giza,Al Wehda Al Mahaleya Street,31.2671102,29.8124152,"Dawar elomda atallah Abusreea, 1 Al Wehda Al Mahaleya Street, Al Maraziq, 01234, Egypt","['catering', 'catering.restaurant', 'catering.restaurant.arab', 'internet_access']",0.0
tigo coffee shop,Cairo,Hafez Ramadan Street,31.3415642,30.0680815,"tigo coffee shop, 3 Hafez Ramadan Street, Cairo, 11391, Egypt","['catering', 'catering.cafe', 'internet_access', 'internet_access.free']",0.0
مطحن بن تبارك,Cairo,Al Moez Ldin Allah Al Fatemi Street,31.2625717,30.0541104,"Tabarak Coffee Maker, 136 Al Moez Ldin Allah Al Fatemi Street, El-Ghuriyya, Cairo, 11681, Egypt","['catering', 'catering.cafe']",0.0
بروستد كينج,Al Qalyubiya,Abbas Al Aqad Street,31.4532134,30.2163986,"Broasted King, Fried Chicken, 26 Abbas Al Aqad Street, El Obour, 02000, Egypt","['catering', 'catering.fast_food']",0.0
مطعم اسماك حمو,Cairo,Hamouda Mahmoud Street,31.3477261,30.0472669,"مطعم اسماك حمو, Hamouda Mahmoud Street, Nasr City, Cairo, 11762, Egypt","['catering', 'catering.restaurant', 'catering.restaurant.seafood']",0.0
Pinci Cafe,Giza,Al Bahr Al Aazam Street,31.2156034,29.9974947,"Pinci Cafe, Al Bahr Al Aazam Street, Giza, 12516, Egypt","['catering', 'catering.restaurant']",0.0
الشرقاوي,Eastern,Al Central Street,31.7459887,30.295554,"الشرقاوي, Al Central Street, 25, 10th of Ramadan, 44629, Egypt","['catering', 'catering.restaurant', 'catering.restaurant.regional']",0.0
الشبراوي,Eastern,Mohamed Hafez Street,31.7455136,30.2956232,"الشبراوي, Mohamed Hafez Street, 8, 10th of Ramadan, 44629, Egypt","['catering', 'catering.restaurant']",0.0
كشري هند,Eastern,Abou Bakr Al Sedik Street,31.7438263,30.2968905,"كشري هند, Abou Bakr Al Sedik Street, 8, 10th of Ramadan, 44629, Egypt","['catering', 'catering.restaurant']",0.0
الشامي,Eastern,Al Central Street,31.7456031,30.2956539,"الشامي, Al Central Street, 25, 10th of Ramadan, 44629, Egypt","['catering', 'catering.restaurant', 'catering.restaurant.lebanese']",0.0
درب الأكيلة,Eastern,Ali Ibn Abi Taleb Street,31.7520586,30.280941,"درب الأكيلة, Ali Ibn Abi Taleb Street, 19, 10th of Ramadan, 44629, Egypt","['catering', 'catering.restaurant']",0.0
AL ABD,Al Qalyubiya,Hany Kamel Street,31.1802023,30.4742417,"AL ABD, Hany Kamel Street, Banha, 13516, Egypt","['catering', 'catering.restaurant']",0.0
مطعم الشيف سرحان,Cairo,Ahmed Ibn Hanbal Street,31.4924513,30.0554283,"مطعم الشيف سرحان, Ahmed Ibn Hanbal Street, Cairo, 11841, Egypt","['catering', 'catering.restaurant']",0.0
دانكن دونتس,Al Qalyubiya,Street 100,31.4595447,30.1956567,"Dunkin' Donuts, Street 100, El Obour, 02000, Egypt","['catering', 'catering.fast_food']",0.0
El Zahraa Cafe,Cairo,Al Mashhd Al Husseiny Street,31.2625099,30.0472905,"El Zahraa Cafe, Al Mashhd Al Husseiny Street, Islamic Cairo, Cairo, 11261, Egypt","['catering', 'catering.restaurant', 'internet_access']",0.0
الباشا,Cairo,Al Bradyoz Street,31.3322151,29.8446634,"الباشا, Al Bradyoz Street, Cairo, 11421, Egypt","['catering', 'catering.cafe']",0.0
Exception Cafe,Giza,Al Haram Street,31.1415058,29.9871491,"Exception Cafe, 1 Al Haram Street, Kom al Akhdar, Remaya Square, 12512, Egypt","['catering', 'catering.cafe']",0.0
كشك خالد دياب,Cairo,Ahmed Taysir Street,31.3285729,30.0826624,"Koshk Khaled Diab, 12 Ahmed Taysir Street, Cairo, 11737, Egypt","['catering', 'catering.fast_food']",0.0
مستر زيزو,Giza,Ahmed Ramadan Street,31.1825228,30.0445899,"Mr.Zizo, Ahmed Ramadan Street, Bulaq Al-Dakrour, Nazlet Bahgat, 12616, Egypt","['catering', 'catering.fast_food']",0.0
المطعم الليبي,Cairo,Teraa Tawari Street,31.3833962,30.1420286,"Al Libi Restaurant, Teraa Tawari Street, Cairo, 11595, Egypt","['catering', 'catering.fast_food']",0.0
كشري ابو حنفي,Cairo,Abd Al Aziz Hassn Street,31.3128652,29.9924506,"كشري ابو حنفي, Abd Al Aziz Hassn Street, Cairo, 11571, Egypt","['catering', 'catering.restaurant']",0.0
كيمبو,Cairo,American University Axis,31.494929,30.0204144,"Kimbo, American University Axis, Cairo, 11865, Egypt","['catering', 'catering.cafe']",0.0
عبده كباب,Cairo,Al Game'a Al Hadetha Street,31.3151611,29.9920806,"عبده كباب, Al Game'a Al Hadetha Street, Cairo, 11571, Egypt","['catering', 'catering.restaurant']",0.0
Crown Central,Giza,Moustafa Abd Al Samei Street,31.0521072,29.9946958,"Crown Central, 2 Moustafa Abd Al Samei Street, Ash Sheikh Zayed, 12573, Egypt","['catering', 'catering.cafe']",0.0
Mahraja Indian Restaurant,Cairo,Al Nahda Street,31.2579908,29.9585177,"Mahraja Indian Restaurant, Al Nahda Street, Ma‘di Al Khahiri, Cairo, 11728, Egypt","['catering', 'catering.restaurant', 'catering.restaurant.indian']",0.0
ElWahy,Cairo,Street 9,31.2641602,29.9525882,"ElWahy, Street 9, Ma‘di Al Khahiri, Cairo, 11431, Egypt","['catering', 'catering.fast_food', 'vegan', 'vegetarian']",0.0
Bazooka Fried Chicken,Cairo,Street 9,31.2643952,29.9526188,"Bazooka Fried Chicken, Street 9, Ma‘di Al Khahiri, Cairo, 11431, Egypt","['catering', 'catering.fast_food']",0.0
Shamy Number One,Cairo,Street 9,31.2644375,29.9523798,"Shamy Number One, Street 9, Ma‘di Al Khahiri, Cairo, 11431, Egypt","['catering', 'catering.fast_food', 'catering.fast_food.kebab']",0.0
لهطة قشطة الكابلات,Cairo,Samir Hegazi Street,31.2883755,30.1129444,"لهطة قشطة الكابلات, 39 Samir Hegazi Street, Cairo, 11715, Egypt","['catering', 'catering.cafe']",0.0
مشويات الوطنية,Giza,Waslet Dahshur Road,30.9454674,30.0526231,"Mashwiaat El Watania, Waslet Dahshur Road, October Hills, 12588, Egypt","['catering', 'catering.restaurant']",0.0
كافية البرنسيسة,Giza,Mubarak Street,31.1569291,29.9901884,"كافية البرنسيسة, Mubarak Street, Kom al Akhdar, Giza, 12574, Egypt","['catering', 'catering.cafe', 'internet_access']",0.0
Island Restaurant,Giza,Al Obour Street,30.993593990487515,30.0443791,"Island Restaurant, Al Obour Street, Continental Gardens, 12593, Egypt","['catering', 'catering.restaurant']",0.0
Fatatri At Tahrir,Cairo,Al Tahrir Street,31.23741679675894,30.0443809,"Fatatri At Tahrir, 2 Al Tahrir Street, Abdin, Cairo, 11513, Egypt","['building', 'building.catering', 'catering', 'catering.restaurant', 'catering.restaurant.regional']",0.0
نيل سيتي بوت,Cairo,6th October Bridge,31.22848647221835,30.04822735,"Nile City Boat, 6th October Bridge, Al-Azbakeya, Cairo, 12344, Egypt","['catering', 'catering.restaurant']",0.0
كافيتيريا ليالي زمان,Giza,Street 10,30.988304639340527,30.05312975,"Laialy Zaman Cafe, Street 10, Ash Sheikh Zayed, 12593, Egypt","['catering', 'catering.cafe']",0.0
الباشا,Cairo,Al Moseqare Mohamed Abd Al Wahab Street,31.22777615,30.0518473,"Al-Basha, Al Moseqare Mohamed Abd Al Wahab Street, Al-Sabtiyya, 12344, Egypt","['catering', 'catering.restaurant']",0.0
مكسيم,Cairo,Al Moseqare Mohamed Abd Al Wahab Street,31.22647274369289,30.05639555,"Nile Maxime, Al Moseqare Mohamed Abd Al Wahab Street, Al-Sabtiyya, 12344, Egypt","['catering', 'catering.restaurant']",0.0
مكرونة رضة,Cairo,Mansour Street,31.23975252214332,30.0435931,"Reda Macaroni, 51A Mansour Street, Abdin, Cairo, 11513, Egypt","['building', 'building.catering', 'catering', 'catering.restaurant', 'vegetarian']",0.0
غران كافي,Cairo,Side Abou Khalifa Al Noaaman Street,31.490171492208,30.05882395,"Grand Cafe, Side Abou Khalifa Al Noaaman Street, Cairo, 11841, Egypt","['building', 'building.catering', 'catering', 'catering.restaurant']",0.0
عربياتا,Cairo,Side Abou Khalifa Al Noaaman Street,31.489980110502835,30.0591662,"Arabiata, Side Abou Khalifa Al Noaaman Street, Cairo, 11841, Egypt","['building', 'building.catering', 'catering', 'catering.fast_food']",0.0
سيلانترو,Cairo,Side Abou Khalifa Al Noaaman Street,31.48976213130704,30.05918845,"Cilantro, Side Abou Khalifa Al Noaaman Street, Cairo, 11841, Egypt","['building', 'building.catering', 'catering', 'catering.cafe']",0.0
كوستا كوفي,Cairo,Talaat Mostafa Street,31.48953485,30.059153,"Costa Coffee, Talaat Mostafa Street, Cairo, 11841, Egypt","['building', 'building.catering', 'catering', 'catering.cafe']",0.0
سينابون,Cairo,Talaat Mostafa Street,31.4893151,30.0590919,"Cinnabon, Talaat Mostafa Street, Cairo, 11841, Egypt","['building', 'building.catering', 'catering', 'catering.cafe']",0.0
لوس غوشوس,Cairo,Talaat Mostafa Street,31.489103542730497,30.059125100000003,"Los Gauchos, Talaat Mostafa Street, Cairo, 11841, Egypt","['building', 'building.catering', 'catering', 'catering.restaurant']",0.0
مركاتو إيطليانو,Cairo,Talaat Mostafa Street,31.48888950339657,30.0592254,"Mercato Italiano, Talaat Mostafa Street, Cairo, 11841, Egypt","['building', 'building.catering', 'catering', 'catering.restaurant', 'catering.restaurant.italian']",0.0
جونية,Cairo,Talaat Mostafa Street,31.488652803617285,30.05919495,"Jounieh, Talaat Mostafa Street, Cairo, 11841, Egypt","['building', 'building.catering', 'catering', 'catering.restaurant']",0.0
